,City,Lat,Lng,Max Temp,Humidity,Cloudiness,Wind Speed,Country,Date
0,sancti spiritus,21.9297,-79.4425,85.73,42,0,7.14,CU,1615932484
1,bredasdorp,-34.5322,20.0403,60.8,94,16,2.3,ZA,1615932485
2,cape town,-33.9258,18.4232,66.2,68,20,21.85,ZA,1615932389
3,punta arenas,-53.15,-70.9167,50.0,66,75,23.02,CL,1615932484
4,albany,42.6001,-73.9662,33.01,27,99,5.23,US,1615932313
5,hilo,19.7297,-155.09,78.8,69,75,12.66,US,1615932113
6,hamilton,39.1834,-84.5333,55.4,71,90,5.75,US,1615932393
7,tizimin,21.15,-88.15,90.16,42,0,15.35,MX,1615932486
8,busselton,-33.65,115.3333,64.0,63,0,3.8,AU,1615932201
9,ponta delgada,37.7333,-25.6667,59.0,72,75,11.5,PT,1615932278
10,nelson bay,-32.7167,152.15,69.01,94,90,3.44,AU,1615932487
11,san quintin,30.4833,-115.95,58.3,55,0,20.83,MX,1615932487
12,puerto ayora,-0.7393,-90.3518,82.4,78,20,9.22,EC,1615932488
13,wierden,52.35,6.5833,39.99,94,100,1.01,NL,1615932488
14,gamba,-2.65,10.0,78.1,83,100,4.79,GA,1615932489
15,tuktoyaktuk,69.4541,-133.0374,-14.8,76,20,2.3,CA,1615932489
16,benavente,42.0025,-5.6783,48.99,75,0,5.75,ES,1615932489
17,komsomolskiy,40.4272,71.7189,35.6,80,100,2.48,UZ,1615932209
18,vila franca do campo,37.7167,-25.4333,59.0,72,75,11.5,PT,1615932216
19,roma,43.2128,-75.4557,46.4,25,90,9.22,US,1615932397
20,trojes,41.756,19.962,37.4,81,0,4.61,AL,1615932490
21,kashi,39.4547,75.9797,48.2,37,40,2.24,CN,1615932491
22,naantali,60.4674,22.0243,30.0,93,75,5.75,FI,1615932492
23,puerto del rosario,28.5004,-13.8627,64.4,82,20,14.97,ES,1615932492
24,pundaguitan,6.3711,126.1689,80.83,79,94,7.34,PH,1615932492
25,lavrentiya,65.5833,-171.0,3.42,93,100,5.44,RU,1615932333
26,raga,8.4596,25.678,77.22,61,70,5.46,SS,1615932493
27,sibu,2.3,111.8167,75.2,100,40,2.26,MY,1615932493
28,yellowknife,62.456,-114.3525,14.0,52,20,9.22,CA,1615932494
29,castro,-24.7911,-50.0119,68.22,83,9,3.29,BR,1615932494
30,lebu,-37.6167,-73.65,57.94,82,96,12.08,CL,1615932495
31,mahebourg,-20.4081,57.7,78.8,78,75,8.05,MU,1615932495
32,eganville,45.5334,-77.0994,39.99,48,1,8.05,CA,1615932495
33,price,39.5994,-110.8107,46.4,66,1,6.91,US,1615932496
34,saint george,37.1041,-113.5841,46.99,65,90,8.05,US,1615932331
35,hermanus,-34.4187,19.2345,62.01,87,20,1.99,ZA,1615932496
36,atuona,-9.8,-139.0333,80.4,66,1,11.36,PF,1615932497
37,menongue,-14.6585,17.691,63.57,94,100,3.11,AO,1615932497
38,oktyabrskoye,43.0645,44.7417,32.0,93,18,4.47,RU,1615932498
39,hithadhoo,-0.6,73.0833,82.06,71,72,6.67,MV,1615932498
40,new norfolk,-42.7826,147.0587,54.0,78,69,1.68,AU,1615932498
41,jamestown,42.097,-79.2353,41.0,60,75,6.46,US,1615932499
42,pevek,69.7008,170.3133,-4.94,95,100,9.13,RU,1615932499
43,ponta do sol,32.6667,-17.1,62.6,59,20,17.27,PT,1615932500
44,sao miguel do araguaia,-13.275,-50.1628,76.89,82,88,5.14,BR,1615932500
45,simpang,-1.2667,104.0833,73.76,97,70,1.34,ID,1615932501
46,tura,25.5198,90.2201,68.31,28,0,3.56,IN,1615932501
47,buggenhout,51.0159,4.2017,44.01,92,100,5.01,BE,1615932502
48,ushuaia,-54.8,-68.3,46.4,66,40,27.63,AR,1615932214
49,anadyr,64.75,177.4833,-4.0,77,20,13.42,RU,1615932502
50,constitucion,-35.3333,-72.4167,61.09,73,17,14.05,CL,1615932503
51,kodiak,57.79,-152.4072,32.0,51,1,9.22,US,1615932503
52,fortuna,40.5982,-124.1573,54.0,53,1,11.5,US,1615932504
53,dikson,73.5069,80.5464,-28.16,99,60,3.98,RU,1615932504
54,arraial do cabo,-22.9661,-42.0278,77.0,69,40,5.75,BR,1615932505
55,hobart,-42.8794,147.3294,54.0,87,20,9.22,AU,1615932505
56,petropavlovsk-kamchatskiy,53.0452,158.6483,35.6,100,75,6.71,RU,1615932506
57,westport,41.1415,-73.3579,33.01,43,90,4.61,US,1615932506
58,east london,-33.0153,27.9116,69.96,75,79,6.38,ZA,1615932506
59,barabai,-2.5833,115.3833,74.07,93,92,1.14,ID,1615932507
60,rikitea,-23.1203,-134.9692,80.31,75,60,10.11,PF,1615932318
61,port lincoln,-34.7333,135.8667,62.83,89,21,8.93,AU,1615932507
62,vestmannaeyjar,63.4427,-20.2734,45.14,92,100,14.32,IS,1615932508
63,vaini,-21.2,-175.2,78.8,78,20,11.5,TO,1615932508
64,belyy yar,53.6039,91.3903,-9.4,84,5,1.77,RU,1615932509
65,yulara,-25.2406,130.9889,60.8,36,100,9.22,AU,1615932509
66,faanui,-16.4833,-151.75,82.36,71,21,9.62,PF,1615932510
67,nanortalik,60.1432,-45.2371,27.09,94,100,6.13,GL,1615932510
68,bluff,-46.6,168.3333,55.99,74,87,14.0,NZ,1615932510
69,reutte,47.4833,10.7167,32.0,93,100,1.99,AT,1615932511
70,sao filipe,14.8961,-24.4956,72.54,69,0,12.21,CV,1615932511
71,aurora,39.7294,-104.8319,36.0,75,90,5.75,US,1615932272
72,sayyan,15.1718,44.3244,55.38,15,0,4.41,YE,1615932512
73,klaksvik,62.2266,-6.589,44.6,93,75,20.71,FO,1615932317
74,kruisfontein,-34.0033,24.7314,60.01,90,55,1.01,ZA,1615932339
75,gull lake,50.1001,-108.4847,33.8,34,1,10.36,CA,1615932513
76,sept-iles,50.2001,-66.3821,19.4,32,20,13.8,CA,1615932513
77,carnarvon,-24.8667,113.6333,78.8,83,40,12.66,AU,1615932514
78,gagarin,55.5529,34.9954,31.39,95,100,6.35,RU,1615932514
79,visnes,59.3556,5.2242,39.2,60,90,17.27,NO,1615932515
80,mataura,-46.1927,168.8643,55.99,74,100,14.0,NZ,1615932515
81,padang,-0.9492,100.3543,75.81,93,100,1.57,ID,1615932516
82,bengkulu,-3.8004,102.2655,74.5,84,89,3.65,ID,1615932516
83,chabahar,25.2919,60.643,72.43,71,25,6.96,IR,1615932313
84,puerto colombia,10.9878,-74.9547,82.4,69,75,18.41,CO,1615932517
85,klyuchi,52.2667,79.1667,4.73,89,68,6.87,RU,1615932517
86,jiangyou,31.7667,104.7167,62.67,85,100,4.29,CN,1615932518
87,hasaki,35.7333,140.8333,46.4,81,20,2.3,JP,1615932518
88,sao sebastiao do paraiso,-20.9169,-46.9914,67.23,89,68,1.25,BR,1615932518
89,kochi,9.9399,76.2602,78.8,89,20,1.14,IN,1615932519
90,kapaa,22.0752,-159.319,73.4,88,90,24.16,US,1615932519
91,healdsburg,38.6105,-122.8692,62.01,51,40,8.05,US,1615932473
92,gigmoto,13.7796,124.39,79.02,88,29,4.79,PH,1615932520
93,sinazongwe,-17.2614,27.4618,73.78,70,23,3.24,ZM,1615932520
94,san patricio,28.017,-97.5169,82.4,83,90,20.71,US,1615932222
95,saskylakh,71.9167,114.0833,-41.24,96,90,8.66,RU,1615932521
96,geraldton,-28.7667,114.6,69.8,88,40,3.44,AU,1615932245
97,atherton,53.5237,-2.4935,46.0,75,74,5.01,GB,1615932521
98,benghazi,32.1167,20.0667,60.28,69,37,20.33,LY,1615932522
99,qaanaaq,77.484,-69.3632,1.81,73,98,3.69,GL,1615932522
100,bethel,41.3712,-73.414,33.01,43,100,5.57,US,1615932523
101,lasa,46.6166,10.7002,42.8,80,0,3.44,IT,1615932523
102,tilichiki,60.4667,166.1,14.13,90,57,8.5,RU,1615932523
103,romny,50.751,33.4747,32.25,91,100,9.26,UA,1615932524
104,omboue,-1.5746,9.2618,76.91,88,83,5.77,GA,1615932524
105,jieshi,22.8134,115.8257,73.0,80,0,3.94,CN,1615932525
106,santiago del estero,-27.7951,-64.2615,83.16,45,62,15.03,AR,1615932525
107,chokurdakh,70.6333,147.9167,-25.15,85,0,8.48,RU,1615932525
108,bambous virieux,-20.3428,57.7575,78.8,78,75,8.05,MU,1615932292
109,alekseyevka,50.6309,38.6903,32.79,81,98,11.77,RU,1615932526
110,longyan,25.1072,117.0225,64.99,86,0,1.68,CN,1615932329
111,laguna de perlas,12.3429,-83.6712,82.4,74,40,4.61,NI,1615932527
112,georgetown,5.4112,100.3354,80.6,78,20,2.3,MY,1615932527
113,kargasok,59.0556,80.8572,15.22,95,99,8.79,RU,1615932527
114,torbay,47.6666,-52.7314,27.0,80,90,21.85,CA,1615932301
115,sinnamary,5.3833,-52.95,77.2,81,80,11.25,GF,1615932528
116,kieta,-6.2167,155.6333,82.44,72,0,1.39,PG,1615932528
117,turochak,52.2576,87.1224,-0.44,96,9,1.83,RU,1615932529
118,aklavik,68.2191,-135.0107,-5.8,71,64,2.3,CA,1615932529
119,cavalcante,-13.7975,-47.4583,70.99,86,100,1.66,BR,1615932530
120,tasiilaq,65.6145,-37.6368,24.8,86,90,27.63,GL,1615932530
121,khatanga,71.9667,102.5,-43.89,97,51,10.31,RU,1615932530
122,hambantota,6.1241,81.1185,76.23,85,82,11.86,LK,1615932531
123,dzilam gonzalez,21.2833,-88.9333,93.87,33,0,10.47,MX,1615932532
124,alofi,-19.0595,-169.9187,86.0,70,40,8.05,NU,1615932532
125,narsaq,60.9167,-46.05,33.8,75,75,4.61,GL,1615932533
126,tautira,-17.7333,-149.15,87.8,62,40,4.61,PF,1615932533
127,bima,-8.4667,118.7167,75.88,95,36,1.34,ID,1615932533
128,avarua,-21.2078,-159.775,82.4,78,75,11.5,CK,1615932534
129,port-gentil,-0.7193,8.7815,78.8,94,20,4.61,GA,1615932261
130,port alfred,-33.5906,26.891,66.0,89,97,8.1,ZA,1615932534
131,porto novo,6.4965,2.6036,84.2,84,40,12.66,BJ,1615932535
132,hay river,60.8156,-115.7999,12.2,67,100,5.75,CA,1615932535
133,cam ranh,11.9214,109.1591,71.6,88,20,4.61,VN,1615932536
134,zyryanka,65.75,150.85,-10.07,97,29,6.93,RU,1615932536
135,kloulklubed,7.0419,134.2556,80.6,83,75,6.91,PW,1615932537
136,barrow,71.2906,-156.7887,1.4,71,90,20.71,US,1615932537
137,coahuayana,18.7333,-103.6833,80.6,100,20,7.14,MX,1615932537
138,alice springs,-23.7,133.8833,59.0,72,86,2.3,AU,1615932315
139,batsfjord,70.6345,29.7185,19.4,79,40,17.27,NO,1615932538
140,souillac,-20.5167,57.5167,78.8,78,75,8.05,MU,1615932538
141,frederikshavn,57.4407,10.5366,32.0,93,42,3.44,DK,1615932539
142,inhambane,-23.865,35.3833,75.85,86,0,7.14,MZ,1615932539
143,tiksi,71.6872,128.8694,-14.64,98,100,3.36,RU,1615932540
144,norman wells,65.282,-126.8329,-4.0,65,75,3.44,CA,1615932540
145,avera,33.194,-82.5271,55.4,94,75,6.91,US,1615932286
146,haskovo,41.9403,25.5694,44.01,84,100,15.5,BG,1615932541
147,esperance,-33.8667,121.9,60.8,72,81,17.27,AU,1615932541
148,vredendal,-31.6683,18.5012,66.81,66,0,2.48,ZA,1615932541
149,toktogul,41.8708,72.9402,29.86,83,71,2.04,KG,1615932542
150,katobu,-4.9408,122.5276,75.16,90,48,2.91,ID,1615932542
151,maceio,-9.6658,-35.7353,75.2,78,0,6.91,BR,1615932543
152,ballesteros,18.4126,121.5152,74.73,90,87,4.65,PH,1615932543
153,provideniya,64.3833,-173.3,6.8,78,90,13.42,RU,1615932322
154,nikolskoye,59.7035,30.7861,30.99,93,0,2.73,RU,1615932544
155,aranos,-24.1333,19.1167,75.11,47,13,9.22,NA,1615932544
156,ocos,14.5094,-92.1933,86.0,62,75,11.5,GT,1615932545
157,ancud,-41.8697,-73.8203,60.8,48,0,6.91,CL,1615932545
158,batagay,67.6333,134.6333,-11.09,87,100,6.15,RU,1615932545
159,xuddur,4.1213,43.8894,74.66,76,64,17.18,SO,1615932274
160,surt,31.2089,16.5887,59.88,65,0,12.77,LY,1615932546
161,bandarbeyla,9.4942,50.8122,77.58,81,66,11.77,SO,1615932300
162,lanzhou,36.0564,103.7922,48.0,21,3,2.3,CN,1615932483
163,pacifica,37.6138,-122.4869,55.99,47,75,14.97,US,1615932547
164,butaritari,3.0707,172.7902,81.16,77,70,14.0,KI,1615932547
165,husavik,66.0449,-17.3389,35.6,80,20,4.61,IS,1615932548
166,port elizabeth,-33.918,25.5701,64.4,82,40,3.44,ZA,1615932282
167,matamoros,25.5333,-103.25,93.2,2,40,4.61,MX,1615932548
168,saint-philippe,-21.3585,55.7679,75.2,73,0,5.75,RE,1615932549
169,selikhino,50.3672,137.4996,15.46,77,100,12.44,RU,1615932549
170,ngama,11.7833,17.1667,88.56,13,99,8.01,TD,1615932549
171,katsuura,35.1333,140.3,53.6,50,20,12.66,JP,1615932550
172,abu kamal,34.4506,40.9171,63.7,48,72,13.87,SY,1615932550
173,vardo,70.3705,31.1107,14.0,92,75,21.85,NO,1615932551
174,vung tau,10.346,107.0843,75.99,83,0,11.97,VN,1615932551
175,karabuk,41.2049,32.6277,42.22,88,80,3.47,TR,1615932551
176,tucuman,-26.8241,-65.2226,77.0,78,75,5.75,AR,1615932552
177,maldonado,-34.6667,-54.9167,77.0,73,90,6.91,UY,1615932552
178,bam,29.106,58.357,63.84,23,85,1.59,IR,1615932553
179,odweyne,9.4092,45.064,65.57,78,14,4.85,SO,1615932318
180,itupiranga,-5.1347,-49.3267,78.8,100,20,1.45,BR,1615932553
181,sabang,5.8933,95.3214,82.29,71,83,5.48,ID,1615932554
182,belogorsk,50.9158,128.4611,12.11,87,45,8.93,RU,1615932554
183,sao miguel do tapuio,-5.5036,-41.3233,74.34,89,43,1.83,BR,1615932555
184,pisco,-13.7,-76.2167,82.4,51,40,13.8,PE,1615932555
185,thompson,55.7435,-97.8558,32.0,29,20,13.8,CA,1615932555
186,touros,-5.1989,-35.4608,80.6,74,75,9.22,BR,1615932257
187,parabel,58.6978,81.4825,13.33,95,99,8.23,RU,1615932556
188,antofagasta,-23.65,-70.4,66.2,82,75,14.97,CL,1615932557
189,ribeira grande,38.5167,-28.7,62.6,94,40,16.11,PT,1615932557
190,tyup,42.7276,78.3648,24.35,66,97,6.44,KG,1615932557
191,flinders,-34.5833,150.8552,64.99,83,99,1.99,AU,1615932558
192,safaga,26.7292,33.9365,68.0,32,0,4.61,EG,1615932558
193,puerto santander,8.3636,-72.4063,77.0,94,75,11.5,CO,1615932559
194,mayo,38.8876,-76.5119,44.01,65,90,13.8,US,1615932559
195,hami,42.8,93.45,36.7,50,21,1.59,CN,1615932559
196,sitka,57.0531,-135.33,39.2,65,75,5.75,US,1615932560
197,carutapera,-1.195,-46.02,76.57,92,97,5.44,BR,1615932560
198,garowe,8.4054,48.4845,69.76,86,56,10.45,SO,1615932561
199,mehamn,71.0357,27.8492,17.6,67,40,25.32,NO,1615932561
200,tuatapere,-46.1333,167.6833,55.99,74,100,14.0,NZ,1615932561
201,sioux lookout,50.1001,-91.917,46.4,34,40,3.44,CA,1615932505
202,yaan,7.3833,8.5667,86.27,48,100,8.9,NG,1615932562
203,mandalgovi,45.7625,106.2708,21.85,58,99,8.21,MN,1615932562
204,honiara,-9.4333,159.95,82.62,74,37,1.74,SB,1615932378
205,fasa,28.9383,53.6482,60.8,41,90,1.81,IR,1615932563
206,cayenne,4.9333,-52.3333,80.6,74,39,4.61,GF,1615932563
207,paamiut,61.994,-49.6678,18.7,85,100,17.36,GL,1615932279
208,blairmore,49.6,-114.4353,53.6,34,40,9.22,CA,1615932564
209,yerbogachen,61.2767,108.0108,15.31,93,100,10.51,RU,1615932565
210,kalmunai,7.4167,81.8167,78.21,81,50,5.35,LK,1615932565
211,durango,24.8333,-104.8333,76.89,6,27,27.38,MX,1615932338
212,mar del plata,-38.0023,-57.5575,66.2,100,90,3.44,AR,1615932308
213,cabo san lucas,22.8909,-109.9124,80.6,34,1,8.05,MX,1615932475
214,lincoln village,39.9548,-83.1307,54.0,82,90,5.75,US,1615932275
215,henties bay,-22.116,14.2845,61.0,89,4,1.99,NA,1615932566
216,vao,-22.6667,167.4833,76.95,81,50,14.47,NC,1615932335
217,boa vista,2.8197,-60.6733,82.4,69,40,9.22,BR,1615932567
218,magadan,59.5667,150.8,9.79,60,0,9.4,RU,1615932567
219,uaua,-9.8414,-39.4817,84.34,32,79,6.4,BR,1615932568
220,mareeba,-17.0,145.4333,80.01,78,75,3.44,AU,1615932568
221,bidhuna,26.8022,79.5088,70.75,23,0,6.2,IN,1615932568
222,pandan,14.0453,124.1694,77.85,88,49,4.23,PH,1615932312
223,marystown,47.1666,-55.1483,25.9,73,99,17.92,CA,1615932569
224,samarai,-10.6167,150.6667,80.82,80,100,5.75,PG,1615932374
225,berlevag,70.8578,29.0864,19.4,73,90,29.93,NO,1615932570
226,lagoa,39.05,-27.9833,60.17,90,95,26.87,PT,1615932363
227,tomatlan,19.9333,-105.25,85.1,32,0,8.32,MX,1615932570
228,the valley,18.217,-63.0578,78.8,65,40,10.36,AI,1615932510
229,victor harbor,-35.5667,138.6167,60.01,89,2,2.57,AU,1615932571
230,barillas,15.8036,-91.3158,80.6,28,40,5.75,GT,1615932466
231,bafata,12.1667,-14.75,75.49,42,0,5.82,GW,1615932572
232,businga,3.3333,20.8833,67.24,99,100,0.31,CD,1615932572
233,ilam,26.9167,87.9167,59.86,41,0,5.93,NP,1615932573
234,dingle,10.9995,122.6711,75.85,89,70,2.75,PH,1615932573
235,berdigestyakh,62.0989,126.6992,7.32,96,99,6.11,RU,1615932573
236,north platte,41.1239,-100.7654,41.0,60,75,9.22,US,1615932574
237,biltine,14.5333,20.9167,80.98,12,60,2.95,TD,1615932574
238,beyneu,45.3167,55.2,33.94,53,100,27.42,KZ,1615932575
239,fairbanks,64.8378,-147.7164,10.99,78,1,5.75,US,1615932575
240,upernavik,72.7868,-56.1549,0.28,95,100,5.19,GL,1615932575
241,sambava,-14.2667,50.1667,77.11,87,100,6.4,MG,1615932576
242,nador,35.174,-2.9287,59.0,77,20,13.8,MA,1615932576
243,shache,38.4167,77.2406,48.61,34,86,5.61,CN,1615932577
244,lata,40.1629,-8.3327,59.0,58,0,6.91,PT,1615932577
245,buala,-8.145,159.5921,83.64,66,45,4.25,SB,1615932577
246,nome,64.5011,-165.4064,12.0,78,90,3.44,US,1615932494
247,oktyabrskiy,54.4815,53.471,13.14,85,100,8.75,RU,1615932578
248,guerrero negro,27.9769,-114.0611,60.17,50,0,23.02,MX,1615932578
249,lompoc,34.6391,-120.4579,57.2,58,1,18.41,US,1615932300
250,banikoara,11.2985,2.4386,85.75,19,6,3.47,BJ,1615932428
251,erenhot,43.6475,111.9767,27.91,21,24,3.15,CN,1615932579
252,miandrivazo,-19.5167,45.4667,76.26,88,55,2.48,MG,1615932580
253,necochea,-38.5473,-58.7368,64.99,97,100,10.22,AR,1615932580
254,sur,22.5667,59.5289,78.58,44,0,6.26,OM,1615932580
255,svetlogorsk,52.6333,29.7333,34.25,95,100,5.64,BY,1615932581
256,kinsale,51.7075,-8.5306,50.0,76,20,8.05,IE,1615932581
257,kushiro,42.975,144.3747,35.6,60,75,4.61,JP,1615932582
258,xingyi,24.1877,102.817,52.81,49,0,3.96,CN,1615932582
259,siocon,7.7061,122.1353,78.01,86,76,4.0,PH,1615932582
260,saldanha,-33.0117,17.9442,64.15,84,0,16.58,ZA,1615932351
261,saraza,8.7356,117.78,77.32,87,10,2.04,PH,1615932583
262,maine-soroa,13.2114,12.0241,83.73,14,93,8.43,NE,1615932584
263,acajutla,13.5928,-89.8275,93.2,31,20,4.61,SV,1615932584
264,chippewa falls,44.9369,-91.3929,36.0,64,90,3.27,US,1615932002
265,lichinga,-13.3128,35.2406,66.2,100,40,6.91,MZ,1615932585
266,port blair,11.6667,92.75,77.83,69,76,6.71,IN,1615932585
267,evanston,42.0411,-87.6901,37.99,75,90,5.75,US,1615932362
268,port hedland,-20.3167,118.5667,78.8,89,90,5.75,AU,1615932586
269,port augusta,-32.5,137.7667,64.0,94,0,8.05,AU,1615932586
270,belmonte,-15.8631,-38.8828,78.8,78,40,12.66,BR,1615932587
271,storforshei,66.4043,14.5233,21.2,73,75,4.61,NO,1615932587
272,gazojak,41.1875,61.4036,28.51,71,99,16.69,TM,1615932588
273,puerto carreno,6.189,-67.4859,78.21,84,100,9.28,CO,1615932588
274,awjilah,29.1081,21.2869,55.22,61,0,7.49,LY,1615932589
275,atar,20.5169,-13.0499,76.84,13,0,7.78,MR,1615932589
276,blackwater,-23.5833,148.8833,69.96,82,100,13.06,AU,1615932590
277,poum,-20.2333,164.0167,78.31,75,6,4.9,NC,1615932590
278,foumban,5.7291,10.9001,72.01,70,100,1.68,CM,1615932541
279,kahului,20.8947,-156.47,77.0,73,40,17.27,US,1615932590
280,bac lieu,9.285,105.7244,73.6,85,13,4.5,VN,1615932591
281,inirida,3.8653,-67.9239,80.19,84,80,1.99,CO,1615932591
282,merauke,-8.4667,140.3333,80.82,80,100,4.5,ID,1615932592
283,kafue,-15.7691,28.1814,63.18,96,83,3.11,ZM,1615932592
284,coos bay,43.3665,-124.2179,55.99,61,1,17.27,US,1615932592
285,mazatlan,23.2167,-106.4167,77.0,44,1,6.91,MX,1615932593
286,notodden,59.5594,9.2585,34.0,72,42,1.99,NO,1615932593
287,biak,-0.9131,122.8766,76.14,82,78,0.98,ID,1615932594
288,salinopolis,-0.6136,-47.3561,79.07,86,97,10.92,BR,1615932594
289,severo-kurilsk,50.6789,156.125,34.61,98,100,10.49,RU,1615932595
290,tezu,27.9167,96.1667,69.84,45,0,4.32,IN,1615932595
291,ewa beach,21.3156,-158.0072,78.8,65,75,9.22,US,1615932596
292,saint anthony,45.0205,-93.218,37.4,69,90,4.61,US,1615932596
293,bara,10.3744,10.7288,83.5,14,58,6.13,NG,1615932596
294,airai,-8.9266,125.4092,59.58,85,49,1.74,TL,1615932597
295,margate,51.3813,1.3862,46.0,68,40,8.01,GB,1615932597
296,farah,32.5,62.5,56.23,27,92,1.43,AF,1615932597
297,letka,59.6011,49.4232,32.58,95,100,8.9,RU,1615932598
298,sorland,67.667,12.6934,28.4,86,0,2.3,NO,1615932598
299,cherskiy,68.75,161.3,-20.61,97,99,6.06,RU,1615932599
300,labuhan,-6.8844,112.2051,77.18,86,48,3.71,ID,1615932599
301,kavaratti,10.5669,72.642,82.51,70,7,8.21,IN,1615932600
302,libusin,50.1682,14.0546,37.0,93,75,11.5,CZ,1615932600
303,ambunti,-4.2365,142.8448,74.93,97,100,0.56,PG,1615932601
304,cidreira,-30.1811,-50.2056,77.07,86,100,18.72,BR,1615932601
305,channel-port aux basques,47.5702,-59.1367,17.51,82,77,17.58,CA,1615932602
306,longyearbyen,78.2186,15.6401,-4.0,65,20,16.11,SJ,1615932602
307,coquimbo,-29.9533,-71.3436,66.2,68,0,12.66,CL,1615932336
308,homer,59.6425,-151.5483,28.99,59,1,4.61,US,1615932603
309,atikokan,48.7555,-91.6216,41.79,42,0,1.48,CA,1615932603
310,goure,13.9835,10.2704,80.46,20,35,9.51,NE,1615932603
311,shimoda,34.6667,138.95,51.01,69,0,1.99,JP,1615932604
312,bilibino,68.0546,166.4372,-11.4,95,100,4.47,RU,1615932604
313,zhuhai,22.2769,113.5678,72.0,94,20,5.75,CN,1615932329
314,ixtapa,20.7,-105.2,73.4,73,1,12.66,MX,1615932605
315,udachnyy,66.4167,112.4,-31.94,93,15,3.8,RU,1615932605
316,nara,34.6851,135.8049,52.0,76,20,6.91,JP,1615932358
317,bereda,43.2686,-7.5406,46.99,94,15,5.99,ES,1615932606
318,seoul,37.5683,126.9778,33.8,69,0,1.14,KR,1615932468
319,quatre cocos,-20.2078,57.7625,78.8,78,75,8.05,MU,1615932607
320,talara,-4.5772,-81.2719,91.4,52,40,14.97,PE,1615932607
321,korla,41.7597,86.1469,42.1,48,87,9.08,CN,1615932608
322,maralal,1.0968,36.698,59.77,72,39,8.41,KE,1615932608
323,bud,39.447,-86.1758,50.0,88,94,5.79,US,1615932608
324,bozoum,6.3193,16.3799,72.1,73,75,4.99,CF,1615932609
325,tazovskiy,67.4667,78.7,-12.01,97,100,16.96,RU,1615932609
326,jabinyanah,35.035,10.9081,57.2,51,0,6.91,TN,1615932610
327,vila,42.0304,-8.1588,54.0,69,0,8.99,PT,1615932610
328,khorixas,-20.3667,14.9667,69.06,45,93,5.7,NA,1615932610
329,mount gambier,-37.8333,140.7667,50.0,100,40,3.29,AU,1615932326
330,mamanguape,-6.8386,-35.1261,78.8,78,20,6.91,BR,1615932611
331,cerrito,6.8432,-72.694,69.8,100,75,4.61,CO,1615932611
332,katherine,-14.4667,132.2667,77.0,94,98,3.47,AU,1615932612
333,mawlaik,23.6333,94.4167,64.67,43,0,1.52,MM,1615932612
334,ramnagar,29.4,79.1167,63.77,27,29,4.72,IN,1615932613
335,damietta,31.4165,31.8133,60.8,63,0,8.05,EG,1615932613
336,lorengau,-2.0226,147.2712,83.34,72,96,4.88,PG,1615932614
337,chuy,-33.6971,-53.4616,72.63,87,91,10.6,UY,1615932614
338,kansanshi,-12.0951,26.4273,60.89,96,89,2.91,ZM,1615932615
339,katangli,51.7102,143.2326,18.86,93,100,24.0,RU,1615932615
340,tolaga bay,-38.3667,178.3,64.15,61,19,11.74,NZ,1615932616
341,guiratinga,-16.3494,-53.7583,75.94,85,92,2.73,BR,1615932616
342,victoria,22.2855,114.1577,73.0,88,5,6.2,HK,1615932616
343,laguna,38.421,-121.4238,62.01,41,1,8.05,US,1615932617
344,ucluelet,48.9329,-125.5528,48.0,76,40,9.22,CA,1615932529
345,oistins,13.0667,-59.5333,78.8,65,20,16.11,BB,1615932617
346,kuusamo,65.9667,29.1833,19.4,73,20,8.05,FI,1615932618
347,kurilsk,45.2333,147.8833,30.27,90,59,9.8,RU,1615932618
348,khvorostyanka,52.6096,48.9597,14.34,90,95,10.56,RU,1615932619
349,cortez,37.3489,-108.5859,37.4,87,1,4.61,US,1615932619
350,bubaque,11.2833,-15.8333,78.31,65,70,15.66,GW,1615932620
351,tubuala,9.5167,-79.0333,91.4,46,40,11.5,PA,1615932620
352,nurota,40.5614,65.6886,33.8,80,98,9.22,UZ,1615932621
353,koosa,58.5255,27.0795,30.99,100,90,2.3,EE,1615932621
354,bathsheba,13.2167,-59.5167,78.8,65,20,16.11,BB,1615932621
355,boyabat,41.4689,34.7667,45.77,60,90,4.38,TR,1615932622
356,clyde river,70.4692,-68.5914,-9.4,59,20,5.75,CA,1615932622
357,sahbuz,39.4072,45.5739,50.0,57,3,6.91,AZ,1615932623
358,zhucheng,35.9947,119.3975,39.96,46,75,2.21,CN,1615932623
359,dunedin,-45.8742,170.5036,55.99,72,63,8.01,NZ,1615932624
360,kathmandu,27.7167,85.3167,57.2,77,20,2.64,NP,1615932495
361,oksfjord,70.2396,22.3479,21.0,86,90,1.14,NO,1615932625
362,tayga,56.06,85.6197,6.8,72,20,6.71,RU,1615932625
363,debre birhan,9.6833,39.5333,49.24,71,0,4.94,ET,1615932625
364,ojinaga,29.5667,-104.4167,87.8,4,1,8.05,MX,1615932626
365,usinsk,65.9939,57.5281,22.42,97,100,2.55,RU,1615932626
366,catuday,16.2923,119.8062,78.46,78,62,2.82,PH,1615932627
367,urumqi,43.801,87.6005,23.0,100,75,2.24,CN,1615932627
368,los llanos de aridane,28.6585,-17.9182,66.2,63,75,11.5,ES,1615932628
369,bafq,31.6128,55.4107,64.45,24,84,2.13,IR,1615932628
370,kiruna,67.8557,20.2251,14.0,92,91,8.05,SE,1615932628
371,edson,53.5835,-116.4356,48.2,25,1,18.41,CA,1615932629
372,dobsina,48.8207,20.3699,32.0,86,75,3.44,SK,1615932629
373,vicuna,-30.0319,-70.7081,73.0,36,1,1.01,CL,1615932630
374,yokadouma,3.5167,15.05,67.15,99,96,1.61,CM,1615932630
375,suntar,62.1444,117.6319,10.08,93,81,7.14,RU,1615932630
376,christchurch,-43.5333,172.6333,64.0,67,86,4.61,NZ,1615932552
377,punta alta,-38.8759,-62.0736,67.39,84,100,23.94,AR,1615932631
378,magsingal,17.685,120.4244,75.2,94,20,2.3,PH,1615932632
379,xining,36.6167,101.7667,37.53,46,80,3.11,CN,1615932623
380,corrales,35.2378,-106.6067,48.99,33,75,29.93,US,1615932632
381,kangaatsiaq,68.3065,-53.4641,5.18,88,99,7.94,GL,1615932373
382,atambua,-9.1061,124.8925,73.33,87,36,1.61,ID,1615932633
383,intipuca,13.1969,-88.0544,98.6,23,0,2.3,SV,1615932633
384,san cristobal,7.7669,-72.225,77.0,94,75,11.5,VE,1615932634
385,gravelbourg,49.8834,-106.5512,34.07,48,100,9.64,CA,1615932634
386,rosarito,32.3333,-117.0333,57.2,47,40,10.36,MX,1615932634
387,itoman,26.1247,127.6694,69.8,94,20,3.44,JP,1615932635
388,vaitape,-16.5167,-151.75,82.36,71,18,9.42,PF,1615932636
389,deloraine,-41.5333,146.6667,59.0,92,76,1.23,AU,1615932636
390,dwarka,22.2394,68.9678,77.11,68,0,17.18,IN,1615932637
391,talnakh,69.4865,88.3972,-27.15,88,82,5.01,RU,1615932637
392,aracuai,-16.8497,-42.0703,73.27,70,16,4.09,BR,1615932638
393,adrar,20.5022,-10.0711,74.88,12,0,9.37,MR,1615932638
394,kaitangata,-46.2817,169.8464,57.0,66,100,13.0,NZ,1615932638
395,kavieng,-2.5744,150.7967,81.34,77,98,10.98,PG,1615932639
396,kudahuvadhoo,2.6708,72.8944,82.31,74,15,11.07,MV,1615932639
397,ostrovnoy,68.0531,39.5131,23.04,76,100,13.96,RU,1615932640
398,bernalillo,35.05,-106.6673,48.99,31,90,26.46,US,1615932640
399,dulce nombre de culmi,15.1,-85.5333,84.2,48,40,6.91,HN,1615932640
400,laredo,27.5064,-99.5075,89.6,43,1,4.61,US,1615932456
401,naryan-mar,67.6713,53.087,11.44,95,100,4.61,RU,1615932641
402,soron,27.8833,78.75,69.12,27,0,4.09,IN,1615932642
403,meulaboh,4.1363,96.1285,76.84,89,99,6.91,ID,1615932642
404,camocim,-2.9022,-40.8411,78.66,85,88,9.62,BR,1615932642
405,inuvik,68.3499,-133.7218,-5.8,71,67,2.3,CA,1615932643
406,severnyy,50.677,36.5532,35.6,75,75,13.42,RU,1615932643
407,pandan niog,6.2282,120.5631,82.33,76,87,5.44,PH,1615932644
408,cattolica,43.9575,12.7376,45.0,60,2,5.75,IT,1615932644
409,shenjiamen,29.9576,122.298,48.96,87,100,10.36,CN,1615932645
410,vanimo,-2.6741,141.3028,77.25,90,47,4.05,PG,1615932645
411,bom jesus,-9.0744,-44.3586,77.59,72,7,3.09,BR,1615932645
412,shingu,33.7333,135.9833,56.57,89,63,2.37,JP,1615932646
413,mbarara,-0.608,30.65,67.24,70,76,2.19,UG,1615932646
414,chegdomyn,51.1167,133.0167,20.12,90,100,1.92,RU,1615932647
415,novobirilyussy,56.9514,90.6661,7.32,95,96,6.96,RU,1615932647
416,batagay-alyta,67.8006,130.4114,-21.1,81,65,3.24,RU,1615932648
417,khilok,51.3674,110.4676,5.94,95,79,4.41,RU,1615932648
418,ayan,56.45,138.1667,7.32,67,93,6.8,RU,1615932648
419,santa maria,-29.6842,-53.8069,86.0,66,20,8.05,BR,1615932649
420,otjiwarongo,-20.4637,16.6477,63.32,82,99,4.99,NA,1615932649
421,ilulissat,69.2167,-51.1,10.4,72,75,8.05,GL,1615932650
422,sao gabriel da cachoeira,-0.1303,-67.0892,79.56,93,98,1.95,BR,1615932650
423,sakakah,29.9697,40.2064,71.6,23,0,4.61,SA,1615932650
424,bukachacha,52.9833,116.9167,7.3,91,100,1.23,RU,1615932651
425,puerto escondido,15.85,-97.0667,86.0,70,20,8.05,MX,1615932651
426,west wendover,40.7391,-114.0733,57.2,28,1,9.22,US,1615932652
427,ngong,-1.3618,36.6566,66.2,82,40,5.75,KE,1615932652
428,birin,26.8865,88.0718,54.97,38,0,5.21,NP,1615932652
429,cananeia,-25.0147,-47.9267,77.22,86,23,5.88,BR,1615932653
430,nhulunbuy,-12.2333,136.7667,77.0,94,92,1.48,AU,1615932653
431,mazara del vallo,37.6641,12.588,55.4,82,20,18.41,IT,1615932654
432,puerto guzman,0.9703,-76.5858,77.49,93,94,2.15,CO,1615932654
433,bayana,26.9,77.2833,70.75,26,1,1.34,IN,1615932654
434,port hawkesbury,45.6169,-61.3485,17.01,85,90,11.5,CA,1615932416
435,khandbari,27.3747,87.2039,59.54,37,0,4.07,NP,1615932655
436,lebanon,36.2081,-86.2911,75.99,49,1,4.61,US,1615932655
437,kosh-agach,50.0,88.6667,-4.97,87,87,2.53,RU,1615932656
438,nemuro,43.3236,145.575,32.97,74,74,9.57,JP,1615932656
439,port hardy,50.6996,-127.4199,44.6,70,90,13.8,CA,1615932657
440,opunake,-39.4556,173.8583,68.0,70,0,1.99,NZ,1615932657
441,hildburghausen,50.4255,10.7318,34.0,82,100,4.03,DE,1615932657
442,ergani,38.2653,39.7621,51.8,70,0,8.05,TR,1615932386
443,adwa,14.1646,38.8955,61.27,42,0,5.44,ET,1615932658
444,kattivakkam,13.2167,80.3167,75.2,88,20,2.3,IN,1615932659
445,easton,40.6884,-75.2207,37.99,44,90,8.05,US,1615932659
446,grosseto,42.8333,11.25,41.0,70,20,2.3,IT,1615932659
447,redlands,34.0556,-117.1825,61.0,35,40,3.29,US,1615932660
448,codrington,-38.2667,141.9667,60.66,83,0,8.88,AU,1615932660
449,san julian,21.0167,-102.1667,81.55,12,0,14.56,MX,1615932660
450,mount isa,-20.7333,139.5,75.2,64,68,5.75,AU,1615932661
451,ridgecrest,35.6225,-117.6709,64.4,17,40,5.75,US,1615932661
452,anloga,5.7947,0.8973,82.4,78,20,11.5,GH,1615932662
453,bilma,18.6853,12.9164,79.2,14,29,11.01,NE,1615932662
454,pedernales,18.0384,-71.744,80.42,64,0,7.16,DO,1615932663
455,kuri,37.5986,127.1394,33.8,75,40,1.14,KR,1615932663
456,shetpe,44.1667,52.1167,34.23,39,86,37.67,KZ,1615932663
457,zhuanghe,39.7008,122.9911,33.01,58,8,5.06,CN,1615932664
458,luderitz,-26.6481,15.1594,63.36,83,0,12.06,NA,1615932664
459,ipixuna,-1.7625,-48.8043,78.8,89,0,8.05,BR,1615932665
460,bandiagara,14.3501,-3.6104,86.0,26,0,4.61,ML,1615932665
461,berehove,48.2056,22.6442,39.99,75,100,1.99,UA,1615932665
462,pestravka,52.405,49.9583,12.63,88,91,9.84,RU,1615932666
463,sanmenxia,34.7747,111.1814,47.97,33,76,12.26,CN,1615932531
464,rodeo,38.033,-122.2669,61.0,39,1,11.5,US,1615932666
465,pacific grove,36.6177,-121.9166,55.4,54,40,6.91,US,1615932667
466,krasnokamensk,50.0979,118.0369,9.86,74,74,4.9,RU,1615932667
467,kansk,56.2017,95.7175,3.67,91,57,5.75,RU,1615932668
468,iqaluit,63.7506,-68.5145,-13.0,70,75,2.3,CA,1615932668
469,acapulco,16.8634,-99.8901,84.2,65,20,6.91,MX,1615932668
470,iquitos,-3.7481,-73.2472,82.4,74,40,4.61,PE,1615932498
471,hwange,-18.3693,26.5019,67.23,89,3,0.89,ZW,1615932669
472,indiana,40.0003,-86.2503,48.99,87,90,4.61,US,1615932669
473,killarney,52.05,-9.5167,45.43,92,58,1.7,IE,1615932670
474,catamarca,-28.4696,-65.7852,72.0,99,42,1.99,AR,1615932670
475,sao joao da barra,-21.6403,-41.0511,78.8,78,0,16.11,BR,1615932671
476,tiznit,29.5833,-9.5,65.28,49,11,1.97,MA,1615932671
477,diamantino,-14.4086,-56.4461,78.62,85,43,1.81,BR,1615932671
478,caravelas,-17.7125,-39.2481,78.12,80,32,7.78,BR,1615932672
479,carballo,43.213,-8.691,51.01,80,25,5.01,ES,1615932672
480,narasannapeta,18.4167,84.05,72.5,86,0,2.84,IN,1615932673
481,kungurtug,50.5994,97.5228,9.77,96,100,1.45,RU,1615932673
482,ladysmith,48.9829,-123.8194,48.2,53,75,6.91,CA,1615932674
483,svetlyy,54.675,20.1347,33.8,100,90,6.71,RU,1615932674
484,auki,-8.7676,160.7034,82.29,73,5,2.48,SB,1615932674
485,riyadh,24.6877,46.7219,80.6,19,0,6.91,SA,1615932581
486,sabzevar,36.2126,57.6819,52.88,48,46,3.78,IR,1615932675
487,mega,4.05,38.3,61.21,67,0,11.3,ET,1615932675
488,solano,38.2333,-121.9511,63.0,41,1,3.44,US,1615932676
489,armidale,-30.5167,151.65,55.99,96,100,5.99,AU,1615932676
490,vila velha,-20.3297,-40.2925,79.0,78,0,13.8,BR,1615932563
491,morant bay,17.8815,-76.4093,82.4,69,20,23.02,JM,1615932677
492,tambura,5.6,27.4667,70.66,87,100,7.18,SS,1615932677
493,nebolchi,59.1239,33.3454,26.01,91,100,2.21,RU,1615932678
494,yar-sale,66.8333,70.8333,18.43,96,100,5.3,RU,1615932678
495,edeia,-17.3383,-49.9314,73.53,87,97,6.22,BR,1615932678
496,sagaing,21.8787,95.9797,72.61,30,0,4.68,MM,1615932679
497,arman,59.7,150.1667,8.02,67,0,10.65,RU,1615932679
498,iracoubo,5.4802,-53.2011,77.38,80,72,11.7,GF,1615932680
499,vostok,46.4856,135.8833,18.21,96,100,4.76,RU,1615932680
500,kesan,40.8558,26.6303,43.9,83,100,4.07,TR,1615932681
501,buenos aires,-34.6132,-58.3772,72.0,78,75,10.36,AR,1615932681
502,jaisalmer,26.9147,70.9181,77.05,17,93,8.41,IN,1615932681
503,cehegin,38.0924,-1.7985,54.0,81,15,1.66,ES,1615932637
504,palu,-0.8917,119.8707,76.44,90,100,2.89,ID,1615932682
505,mnogovershinnyy,53.9353,139.9242,5.74,75,100,7.45,RU,1615932682
506,baghdad,33.3406,44.4009,66.2,45,75,6.91,IQ,1615932683
507,srednekolymsk,67.45,153.6833,-18.69,89,0,5.88,RU,1615932683
508,ladushkin,54.5703,20.171,33.8,100,90,6.71,RU,1615932684
509,gamboma,-1.8764,15.8644,70.63,96,93,2.53,CG,1615932684
510,aigle,46.3181,6.9646,39.2,70,75,9.22,CH,1615932684
511,kemi,65.8596,24.8228,12.2,100,0,4.61,FI,1615932685
512,antalaha,-14.9003,50.2788,75.04,91,100,4.85,MG,1615932685
513,madimba,-10.4,40.3333,77.0,94,40,9.22,TZ,1615932686
514,talaya,61.3833,152.75,-7.06,71,34,3.0,RU,1615932686
515,haines junction,60.7522,-137.5108,32.0,21,90,5.75,CA,1615932686
516,solnechnyy,50.7214,136.6319,12.15,70,100,11.7,RU,1615932687
517,duluth,46.7833,-92.1066,37.99,69,90,5.75,US,1615932505
518,bone,51.9669,12.1396,39.0,81,76,7.4,DE,1615932687
519,athabasca,54.7169,-113.2854,42.8,56,0,9.22,CA,1615932688
520,borovoy,55.4333,86.0833,8.6,72,40,6.71,RU,1615932688
521,codajas,-3.8367,-62.0569,82.69,81,56,2.13,BR,1615932689
522,mae hong son,19.3003,97.9685,66.74,43,0,0.94,TH,1615932644
523,ahipara,-35.1667,173.1667,65.91,65,14,10.54,NZ,1615932689
524,sorong,-0.8833,131.25,79.86,79,85,0.69,ID,1615932690
525,zhigansk,66.7697,123.3711,-13.11,91,48,8.75,RU,1615932690
526,sokoni,-6.4333,39.55,80.6,83,20,9.22,TZ,1615932690
527,marzuq,14.4,46.4667,59.92,52,48,4.43,YE,1615932691
528,noumea,-22.2763,166.4572,81.0,69,0,3.44,NC,1615932691
529,rocha,-34.4833,-54.3333,72.81,80,84,8.52,UY,1615932446
530,trincomalee,8.5711,81.2335,80.46,73,21,8.86,LK,1615932692
531,yeppoon,-23.1333,150.7333,69.8,88,90,12.66,AU,1615932692
532,leningradskiy,69.3833,178.4167,-0.6,95,100,13.35,RU,1615932693
533,tamworth,52.634,-1.6959,43.0,90,17,4.0,GB,1615932693
534,beloha,-25.1667,45.05,75.6,74,0,9.19,MG,1615932693
535,ayagoz,47.9714,80.4392,-3.1,84,2,8.55,KZ,1615932694
536,barcelos,41.5388,-8.6151,62.01,82,0,5.48,PT,1615932694
537,cap-chat,49.1001,-66.6821,17.6,49,0,11.5,CA,1615932695
538,alenquer,-1.9417,-54.7383,80.6,83,75,4.61,BR,1615932695
539,bonthe,7.5264,-12.505,78.87,80,0,8.43,SL,1615932695
540,kupang,-10.1667,123.5833,75.2,100,40,2.95,ID,1615932696
541,mendoza,-32.8908,-68.8272,77.0,47,75,6.91,AR,1615932696
542,hatillo,18.4863,-66.8254,78.8,61,75,13.8,PR,1615932697
543,bekhtery,46.251,32.2927,44.44,90,100,9.98,UA,1615932697
544,khakhea,-24.6895,23.494,69.73,71,82,5.3,BW,1615932698
545,kirishi,59.4471,32.0205,25.0,92,94,2.51,RU,1615932698
546,iskateley,67.6803,53.1512,11.34,95,100,4.68,RU,1615932699
547,razole,16.4833,81.8333,70.68,92,0,2.13,IN,1615932699
548,poroshkovo,48.6683,22.7533,39.99,69,100,1.01,UA,1615932699
549,te anau,-45.4167,167.7167,53.02,62,60,2.28,NZ,1615932700
550,kolondieba,11.0882,-6.8926,84.42,17,11,3.29,ML,1615932700
551,araguari,-18.6472,-48.1872,73.4,83,75,12.66,BR,1615932701
552,koubia,11.5833,-11.9,74.39,24,40,1.77,GN,1615932701
553,gao,16.6362,1.637,81.1,17,0,5.77,ML,1615932702
554,fortuna foothills,32.6578,-114.4119,66.99,24,1,8.05,US,1615932702
555,muisne,0.6,-80.0333,82.4,83,75,9.22,EC,1615932703
556,isangel,-19.55,169.2667,82.4,78,75,6.91,VU,1615932703
557,mumford,5.2618,-0.759,81.79,82,43,13.82,GH,1615932704
558,horqueta,-23.3428,-57.0597,88.66,49,47,5.26,PY,1615932704
559,asau,46.4333,26.4,37.0,68,100,11.32,RO,1615932705
560,camacupa,-12.0167,17.4833,62.35,96,100,3.44,AO,1615932705
561,puchezh,56.9788,43.1676,31.59,96,100,9.08,RU,1615932705
562,coffs harbour,-30.3,153.1333,66.2,94,75,6.91,AU,1615932706
563,banting,2.8167,101.5,77.0,94,40,2.3,MY,1615932706
564,guzelyurt,38.2772,34.3719,39.2,65,75,4.61,TR,1615932707
565,brainerd,46.358,-94.2008,35.01,69,90,3.44,US,1615932409
566,baruun-urt,46.6806,113.2792,18.54,61,46,8.3,MN,1615932707
567,dali,25.7,100.1833,47.73,68,0,4.54,CN,1615932708
