,City,Lat,Lng,Max Temp,Humidity,Cloudiness,Wind Speed,Country,Date
0,atuona,-9.8,-139.0333,80.51,67,100,8.55,PF,1615944433
1,junction city,39.0286,-96.8314,55.0,71,75,13.8,US,1615944433
2,avarua,-21.2078,-159.775,84.2,74,20,8.05,CK,1615944434
3,los llanos de aridane,28.6585,-17.9182,64.4,63,20,10.36,ES,1615944434
4,solano,38.2333,-121.9511,57.2,47,1,10.36,US,1615944435
5,provideniya,64.3833,-173.3,10.4,72,0,4.47,RU,1615944435
6,bilibino,68.0546,166.4372,-10.14,90,99,4.94,RU,1615944435
7,hasaki,35.7333,140.8333,62.01,41,20,5.75,JP,1615944436
8,hobart,-42.8794,147.3294,70.0,45,20,9.22,AU,1615944231
9,trelew,-43.249,-65.3051,52.86,61,76,16.69,AR,1615944437
10,vao,-22.6667,167.4833,77.22,81,93,17.22,NC,1615944437
11,bluff,-46.6,168.3333,57.99,57,75,15.01,NZ,1615944319
12,dikson,73.5069,80.5464,-28.43,99,72,5.91,RU,1615944438
13,bredasdorp,-34.5322,20.0403,53.6,94,7,2.3,ZA,1615944438
14,east london,-33.0153,27.9116,70.14,78,100,6.73,ZA,1615944438
15,mount gambier,-37.8333,140.7667,77.0,44,0,8.05,AU,1615944439
16,ushuaia,-54.8,-68.3,46.4,71,40,21.85,AR,1615944439
17,warren,39.4334,-84.1666,48.99,100,75,4.61,US,1615944440
18,sitka,57.0531,-135.33,39.2,70,90,4.61,US,1615944440
19,ribeira grande,38.5167,-28.7,61.54,88,100,25.61,PT,1615944441
20,bay city,43.5945,-83.8889,34.0,86,90,3.44,US,1615944437
21,busselton,-33.65,115.3333,72.0,71,0,1.01,AU,1615944441
22,yellowknife,62.456,-114.3525,8.01,66,40,6.91,CA,1615944442
23,biak,-0.9131,122.8766,82.92,70,12,1.32,ID,1615944442
24,zhigansk,66.7697,123.3711,-8.66,90,100,7.09,RU,1615944443
25,port lincoln,-34.7333,135.8667,68.11,73,2,10.54,AU,1615944443
26,dinan,48.4167,-2.25,48.2,93,0,8.05,FR,1615944443
27,faanui,-16.4833,-151.75,82.69,73,100,11.14,PF,1615944444
28,mahon,39.8885,4.2658,48.2,87,0,4.61,ES,1615944444
29,hermanus,-34.4187,19.2345,59.0,92,3,1.01,ZA,1615944445
30,padang,-0.9492,100.3543,80.6,83,20,3.44,ID,1615944445
31,saskylakh,71.9167,114.0833,-41.31,94,62,8.41,RU,1615944445
32,carnarvon,-24.8667,113.6333,82.4,69,0,14.97,AU,1615944446
33,victoria,22.2855,114.1577,75.99,84,3,7.54,HK,1615944181
34,codrington,-38.2667,141.9667,75.7,48,0,4.81,AU,1615944447
35,te anau,-45.4167,167.7167,58.98,55,25,2.3,NZ,1615944447
36,arraial do cabo,-22.9661,-42.0278,77.41,82,0,19.77,BR,1615944317
37,mount isa,-20.7333,139.5,87.8,33,0,12.66,AU,1615944448
38,tuktoyaktuk,69.4541,-133.0374,-14.8,76,20,2.3,CA,1615944448
39,rikitea,-23.1203,-134.9692,80.69,72,100,9.42,PF,1615944449
40,saint-philippe,-21.3585,55.7679,75.2,64,0,4.61,RE,1615944325
41,punta arenas,-53.15,-70.9167,48.0,76,40,26.46,CL,1615944389
42,constitucion,-35.3333,-72.4167,55.22,88,18,10.87,CL,1615944449
43,raga,8.4596,25.678,76.05,66,72,8.81,SS,1615944319
44,barrow,71.2906,-156.7887,-2.2,78,90,23.02,US,1615944450
45,albany,42.6001,-73.9662,33.01,31,100,1.01,US,1615944427
46,bati,11.1833,40.0167,60.84,61,99,4.14,ET,1615944451
47,qaanaaq,77.484,-69.3632,0.05,83,98,3.04,GL,1615944451
48,butaritari,3.0707,172.7902,81.16,74,14,10.25,KI,1615944452
49,cape town,-33.9258,18.4232,66.99,82,0,12.66,ZA,1615944205
50,kapaa,22.0752,-159.319,73.99,78,90,21.85,US,1615944316
51,murgab,37.4966,61.9714,35.6,75,0,9.22,TM,1615944452
52,san luis rio colorado,32.4631,-114.7767,64.99,22,1,3.27,MX,1615944453
53,new norfolk,-42.7826,147.0587,71.01,50,6,1.01,AU,1615944453
54,novosokolniki,56.3463,30.1578,32.02,98,100,5.61,RU,1615944454
55,north vanlaiphai,23.1333,93.0667,51.12,44,0,2.73,IN,1615944454
56,cherskiy,68.75,161.3,-18.31,92,99,5.73,RU,1615944316
57,hilo,19.7297,-155.09,78.8,65,20,10.36,US,1615943930
58,maningrida,-12.0667,134.2667,85.69,65,9,4.05,AU,1615944455
59,filadelfia,39.9523,-75.1638,37.99,75,90,10.36,US,1615944242
60,kieta,-6.2167,155.6333,85.78,62,6,4.05,PG,1615944456
61,sarkand,45.41,79.9186,12.9,77,78,2.75,KZ,1615944456
62,cidreira,-30.1811,-50.2056,77.11,88,100,20.58,BR,1615944456
63,port hedland,-20.3167,118.5667,89.6,51,51,10.36,AU,1615944457
64,amapa,1.0,-52.0,71.94,98,100,3.58,BR,1615944457
65,baykit,61.67,96.37,12.15,95,98,3.44,RU,1615944458
66,dorobantu,44.2167,26.95,41.0,92,100,1.01,RO,1615944458
67,yar-sale,66.8333,70.8333,16.05,96,100,5.32,RU,1615944459
68,camocim,-2.9022,-40.8411,77.32,88,63,8.34,BR,1615944459
69,torbay,47.6666,-52.7314,26.01,86,90,27.63,CA,1615944459
70,leningradskiy,69.3833,178.4167,-0.85,93,100,21.43,RU,1615944460
71,geraldton,-28.7667,114.6,80.6,65,0,10.36,AU,1615944460
72,lompoc,34.6391,-120.4579,53.6,62,1,11.5,US,1615944203
73,tabuk,17.4189,121.4443,80.8,79,79,2.55,PH,1615944461
74,khor,47.8861,134.9464,22.41,75,100,7.76,RU,1615944461
75,bethel,41.3712,-73.414,30.99,58,100,3.24,US,1615944462
76,wilmington,34.2257,-77.9447,50.0,93,75,5.75,US,1615944186
77,puerto carreno,6.189,-67.4859,76.84,88,100,3.2,CO,1615944462
78,crotone,39.0851,17.1178,41.0,67,97,4.0,IT,1615944463
79,port alfred,-33.5906,26.891,66.0,91,98,8.77,ZA,1615944463
80,la ronge,55.1001,-105.2842,39.2,35,0,6.91,CA,1615944464
81,polewali,-3.4324,119.3435,81.3,80,100,1.05,ID,1615944464
82,guerrero negro,27.9769,-114.0611,57.38,63,0,21.83,MX,1615944465
83,georgetown,5.4112,100.3354,80.6,69,20,4.61,MY,1615944465
84,ahipara,-35.1667,173.1667,68.5,58,0,8.66,NZ,1615944190
85,grand gaube,-20.0064,57.6608,75.99,85,8,1.99,MU,1615944466
86,bonavista,48.6499,-53.1147,25.0,86,100,9.22,CA,1615944466
87,puerto ayora,-0.7393,-90.3518,79.0,89,45,5.01,EC,1615944467
88,flinders,-34.5833,150.8552,73.99,63,80,5.99,AU,1615944467
89,shellbrook,53.2168,-106.4011,28.4,50,20,9.22,CA,1615944468
90,vaini,-21.2,-175.2,84.2,74,40,2.3,TO,1615944468
91,nenjiang,49.1833,125.2167,22.5,68,99,5.01,CN,1615944469
92,hithadhoo,-0.6,73.0833,82.22,71,16,8.19,MV,1615944469
93,upernavik,72.7868,-56.1549,-3.08,97,95,1.14,GL,1615944469
94,mancora,-4.1078,-81.0475,80.94,71,100,7.18,PE,1615944470
95,tabou,4.423,-7.3528,78.17,90,65,8.43,CI,1615944470
96,mataura,-46.1927,168.8643,57.99,57,55,15.01,NZ,1615944471
97,ballina,-28.8667,153.5667,71.6,83,90,5.75,AU,1615944471
98,tukrah,32.5341,20.5791,57.49,73,56,20.07,LY,1615944471
99,waddan,29.1614,16.139,52.77,57,23,10.25,LY,1615944472
100,ahuimanu,21.4447,-157.8378,78.01,88,90,20.71,US,1615944472
101,lugus,5.7036,120.8203,82.65,73,100,3.8,PH,1615944473
102,aswan,24.0934,32.907,69.01,33,0,12.12,EG,1615944473
103,ewo,-0.8725,14.8206,70.77,89,100,3.36,CG,1615944473
104,tautira,-17.7333,-149.15,87.01,62,75,8.05,PF,1615944474
105,nome,64.5011,-165.4064,15.01,85,90,3.44,US,1615944474
106,quatre cocos,-20.2078,57.7625,78.8,78,75,11.5,MU,1615944475
107,siteki,-26.45,31.95,77.0,88,67,1.14,SZ,1615944475
108,waterloo,43.4668,-80.5164,33.01,69,90,6.91,CA,1615944329
109,margate,51.3813,1.3862,46.0,79,100,4.0,GB,1615944476
110,college,64.8569,-147.8028,10.99,67,75,8.05,US,1615944476
111,kirgiz-miyaki,53.6324,54.7979,4.93,76,64,6.8,RU,1615944477
112,raudeberg,61.9875,5.1352,36.0,80,98,13.56,NO,1615944477
113,dubti,11.7361,41.0853,72.16,79,79,5.35,ET,1615944477
114,westport,41.1415,-73.3579,32.0,61,100,4.79,US,1615944348
115,jamestown,42.097,-79.2353,36.0,69,1,3.62,US,1615944478
116,hovd,48.0056,91.6419,17.96,57,100,3.47,MN,1615944478
117,atbasar,51.8,68.3333,1.27,85,7,9.13,KZ,1615944479
118,brae,60.3964,-1.353,44.6,93,75,24.16,GB,1615944479
119,doha,25.2867,51.5333,71.01,100,4,2.3,QA,1615944480
120,kruisfontein,-34.0033,24.7314,57.99,93,0,2.44,ZA,1615944480
121,umea,63.8284,20.2597,32.0,69,90,6.91,SE,1615944480
122,mar del plata,-38.0023,-57.5575,64.99,94,90,9.22,AR,1615944481
123,saint-georges,12.0564,-61.7485,78.8,83,75,13.8,GD,1615944481
124,cesis,57.3119,25.2746,32.0,94,39,2.71,LV,1615944481
125,monticello,45.3055,-93.7941,35.01,86,90,1.72,US,1615944482
126,vila franca do campo,37.7167,-25.4333,59.0,67,75,14.97,PT,1615944482
127,sioux lookout,50.1001,-91.917,35.6,44,75,1.23,CA,1615944483
128,anchorage,61.2181,-149.9003,27.0,80,1,3.83,US,1615944274
129,vanimo,-2.6741,141.3028,82.38,81,94,2.59,PG,1615944483
130,klaksvik,62.2266,-6.589,44.6,100,90,12.66,FO,1615944484
131,gari,59.4307,62.3497,20.88,90,100,9.01,RU,1615944484
132,nikolskoye,59.7035,30.7861,30.0,93,90,6.71,RU,1615944485
133,praia,14.9215,-23.5087,68.0,73,0,9.22,CV,1615944485
134,mahebourg,-20.4081,57.7,78.8,78,75,11.5,MU,1615944485
135,waipawa,-41.4122,175.5153,68.0,45,0,12.66,NZ,1615944190
136,port elizabeth,-33.918,25.5701,62.6,88,20,3.44,ZA,1615944486
137,fortuna,40.5982,-124.1573,48.99,61,1,10.36,US,1615944486
138,goderich,43.7501,-81.7165,33.8,80,100,4.61,CA,1615944487
139,saint-francois,46.4154,3.9054,46.99,93,90,12.66,FR,1615944487
140,zhanaozen,43.3,52.8,32.56,45,4,33.17,KZ,1615944488
141,ayan,56.45,138.1667,15.53,60,96,2.91,RU,1615944488
142,iqaluit,63.7506,-68.5145,-14.8,70,40,1.81,CA,1615944488
143,san patricio,28.017,-97.5169,72.0,94,90,18.41,US,1615944489
144,marsa matruh,31.3525,27.2453,53.6,71,0,13.8,EG,1615944489
145,khatanga,71.9667,102.5,-38.79,95,97,12.62,RU,1615944490
146,urumqi,43.801,87.6005,24.8,93,90,4.47,CN,1615944490
147,sijunjung,-0.6876,100.9537,73.67,96,100,1.5,ID,1615944490
148,road town,18.4167,-64.6167,77.0,73,40,8.05,VG,1615944491
149,avera,33.194,-82.5271,51.8,97,90,6.91,US,1615944491
150,ossora,59.2353,163.0719,19.22,84,81,8.68,RU,1615944492
151,san jeronimo,-11.9472,-75.2829,50.49,88,100,3.11,PE,1615944492
152,souillac,-20.5167,57.5167,78.8,78,75,11.5,MU,1615944493
153,pangnirtung,66.1451,-65.7125,-24.12,93,0,0.81,CA,1615944493
154,pimentel,-6.8367,-79.9342,75.2,73,0,19.57,PE,1615944493
155,loa janan,-0.583,117.095,86.52,67,44,1.05,ID,1615944494
156,kodiak,57.79,-152.4072,35.6,41,1,10.36,US,1615944494
157,smithers,54.7804,-127.1743,41.0,60,90,5.75,CA,1615944495
158,severo-kurilsk,50.6789,156.125,34.9,98,100,12.21,RU,1615944495
159,manga,11.6636,-1.0731,84.74,21,71,2.39,BF,1615944495
160,lakatoro,-16.0999,167.4164,82.87,73,100,7.87,VU,1615944496
161,necochea,-38.5473,-58.7368,64.0,94,100,11.99,AR,1615944496
162,launceston,-41.45,147.1667,68.0,42,40,8.05,AU,1615944497
163,port blair,11.6667,92.75,75.2,88,20,6.02,IN,1615944497
164,thompson,55.7435,-97.8558,28.4,37,20,8.05,CA,1615944498
165,vestmanna,62.1564,-7.1664,44.6,100,90,12.66,FO,1615944498
166,chuy,-33.6971,-53.4616,73.15,90,97,9.57,UY,1615944498
167,komsomolskiy,40.4272,71.7189,37.4,75,75,4.61,UZ,1615944499
168,agadir,30.4202,-9.5982,55.4,100,75,5.75,MA,1615944499
169,pombas,17.1503,-25.0201,68.0,77,20,14.97,CV,1615944500
170,piracanjuba,-17.3028,-49.0167,68.04,91,100,4.18,BR,1615944472
171,angoram,-4.0625,144.0661,77.56,96,98,4.21,PG,1615944500
172,careiro da varzea,-3.2003,-59.8119,78.8,89,0,10.36,BR,1615944501
173,castro,-24.7911,-50.0119,64.22,92,34,3.27,BR,1615944501
174,mayumba,-3.432,10.6554,76.82,84,99,3.47,GA,1615944502
175,paamiut,61.994,-49.6678,16.97,87,100,13.02,GL,1615944327
176,mareeba,-17.0,145.4333,87.8,58,31,6.91,AU,1615944502
177,rzeszow,50.0413,21.999,36.0,86,0,9.22,PL,1615944503
178,vernon,50.2581,-119.2691,51.01,39,0,2.3,CA,1615944270
179,tasiilaq,65.6145,-37.6368,30.2,93,90,48.34,GL,1615944503
180,airai,-8.9266,125.4092,71.83,65,53,1.03,TL,1615944504
181,nikolayevsk-na-amure,53.1406,140.73,16.52,78,100,7.63,RU,1615944504
182,antofagasta,-23.65,-70.4,66.2,72,90,6.91,CL,1615944504
183,nouadhibou,20.931,-17.0347,62.6,94,0,12.66,MR,1615944505
184,huilong,31.8111,121.655,52.0,75,100,4.0,CN,1615944505
185,lavumisa,-27.31,31.892,77.0,88,49,1.14,SZ,1615944506
186,vila velha,-20.3297,-40.2925,77.0,83,40,4.61,BR,1615944506
187,riyadh,24.6877,46.7219,77.0,23,0,5.75,SA,1615944248
188,svobodnyy,51.4,128.1333,17.89,74,0,10.51,RU,1615944507
189,tambun,-6.2641,107.0712,80.6,78,20,3.44,ID,1615944507
190,santa barbara,34.7333,-120.0343,54.0,66,75,10.36,US,1615944507
191,talnakh,69.4865,88.3972,-27.49,87,100,6.22,RU,1615944508
192,luanda,-8.8368,13.2343,77.0,88,75,3.44,AO,1615944285
193,iwaki,37.05,140.8833,53.01,44,80,10.0,JP,1615944270
194,clyde river,70.4692,-68.5914,-18.4,69,1,18.41,CA,1615944509
195,san quintin,30.4833,-115.95,55.89,65,0,19.04,MX,1615944509
196,winnemucca,40.973,-117.7357,42.8,61,90,3.44,US,1615944509
197,kalaleh,37.3807,55.4916,48.2,81,0,9.69,IR,1615944510
198,baherden,38.4362,57.4316,42.55,58,0,11.77,TM,1615944510
199,port-gentil,-0.7193,8.7815,80.64,78,100,9.15,GA,1615944511
200,grindavik,63.8424,-22.4338,44.6,100,90,23.02,IS,1615944511
201,tromso,69.6496,18.957,23.0,80,75,3.44,NO,1615944512
202,saint-leu,-21.15,55.2833,75.2,64,0,4.61,RE,1615944512
203,marietta,33.9526,-84.5499,48.99,100,90,4.61,US,1615944450
204,ranfurly,-45.1333,170.1,55.99,70,25,5.99,NZ,1615944513
205,bambous virieux,-20.3428,57.7575,78.8,78,75,11.5,MU,1615944513
206,ponta do sol,32.6667,-17.1,60.8,67,20,13.8,PT,1615944320
207,narsaq,60.9167,-46.05,33.8,75,75,2.3,GL,1615944514
208,odessa,46.4775,30.7326,41.0,100,90,8.95,UA,1615944244
209,logansport,40.7545,-86.3567,41.0,93,90,4.83,US,1615944501
210,rathdrum,47.8137,-116.892,52.0,43,1,3.44,US,1615944515
211,salalah,17.0151,54.0924,73.4,68,0,4.61,OM,1615944515
212,rincon,32.296,-81.2354,71.6,73,75,12.66,US,1615944515
213,berezovyy,51.6667,135.7,22.55,49,100,3.67,RU,1615944516
214,wajima,37.4,136.9,42.8,56,20,8.05,JP,1615944516
215,misratah,32.3754,15.0925,58.41,65,1,19.57,LY,1615944517
216,kendari,-3.945,122.4989,84.51,72,26,2.42,ID,1615944517
217,hwange,-18.3693,26.5019,65.41,92,97,1.5,ZW,1615944517
218,mezen,65.8522,44.24,9.43,94,96,4.38,RU,1615944518
219,ilulissat,69.2167,-51.1,10.4,79,75,5.75,GL,1615944518
220,puerto escondido,15.85,-97.0667,80.6,74,1,6.82,MX,1615944518
221,kaitangata,-46.2817,169.8464,55.99,60,87,11.01,NZ,1615944519
222,qeshm,26.9581,56.2719,68.0,82,75,4.61,IR,1615944519
223,lorengau,-2.0226,147.2712,85.75,66,100,7.83,PG,1615944520
224,taltal,-25.4,-70.4833,64.11,86,34,2.15,CL,1615944520
225,garbolovo,60.3413,30.4955,32.0,94,93,3.0,RU,1615944521
226,bengkulu,-3.8004,102.2655,78.39,74,96,3.69,ID,1615944521
227,brosteni,47.2333,25.7,30.99,82,100,1.01,RO,1615944521
228,pevek,69.7008,170.3133,-5.76,92,100,12.03,RU,1615944323
229,the valley,18.217,-63.0578,77.0,69,20,16.11,AI,1615944522
230,seddon,-37.8068,144.8916,75.99,56,0,3.44,AU,1615944522
231,sao filipe,14.8961,-24.4956,70.83,77,0,3.33,CV,1615944523
232,poum,-20.2333,164.0167,79.84,73,10,4.52,NC,1615944523
233,sept-iles,50.2001,-66.3821,14.0,72,90,3.44,CA,1615944268
234,nanortalik,60.1432,-45.2371,26.91,86,100,2.53,GL,1615944314
235,hervey bay,-25.2986,152.8535,70.0,92,100,4.0,AU,1615944463
236,lebu,-37.6167,-73.65,54.81,89,5,12.46,CL,1615944513
237,cabanas,22.9758,-82.9219,73.4,73,20,2.3,CU,1615944525
238,mingyue,43.1069,128.9217,32.85,32,0,11.5,CN,1615944367
239,monywa,22.1167,95.1333,75.18,32,0,5.68,MM,1615944525
240,soe,-9.8607,124.284,77.23,71,6,0.31,ID,1615944526
241,pisco,-13.7,-76.2167,71.6,73,90,17.27,PE,1615944284
242,adamas,36.7333,24.4333,53.6,58,0,11.5,GR,1615944526
243,gonbad-e qabus,37.25,55.1672,48.2,81,0,4.94,IR,1615944527
244,dusti,37.3481,68.664,42.8,93,90,2.24,TJ,1615944527
245,ayagoz,47.9714,80.4392,-3.91,82,41,6.51,KZ,1615944527
246,coquimbo,-29.9533,-71.3436,60.8,82,0,3.44,CL,1615944528
247,ponta delgada,37.7333,-25.6667,59.0,67,75,14.97,PT,1615944528
248,dingle,10.9995,122.6711,83.35,76,0,4.52,PH,1615944529
249,tongzi,28.7829,105.0877,71.37,68,100,2.75,CN,1615944529
250,rodrigues alves,-7.738,-72.6509,73.11,94,96,2.53,BR,1615944530
251,dunedin,-45.8742,170.5036,55.0,68,100,24.0,NZ,1615944530
252,nizhnevartovsk,60.9344,76.5531,23.0,74,75,11.18,RU,1615944530
253,synya,65.3718,58.0387,22.15,97,100,2.51,RU,1615944531
254,beringovskiy,63.05,179.3167,9.36,77,0,11.65,RU,1615944531
255,bogalusa,30.791,-89.8487,77.0,78,75,8.05,US,1615944532
256,auki,-8.7676,160.7034,83.64,72,25,7.16,SB,1615944532
257,santa marta,11.2408,-74.199,82.4,65,75,13.8,CO,1615944532
258,mancio lima,-7.6142,-72.8958,72.84,96,60,2.77,BR,1615944533
259,mangai,-4.05,19.5333,68.74,98,100,4.61,CD,1615944316
260,kampot,10.6167,104.1833,82.4,74,40,6.91,KH,1615944533
261,villa maria,-32.4075,-63.2402,64.0,94,0,3.0,AR,1615944398
262,sistranda,63.7256,8.834,30.2,86,20,5.75,NO,1615944534
263,belyy yar,53.6039,91.3903,-13.0,84,20,4.47,RU,1615944534
264,saint anthony,45.0205,-93.218,36.0,69,90,4.61,US,1615944535
265,saint joseph,39.7686,-94.8466,46.99,81,90,12.66,US,1615944535
266,mashhad,36.297,59.6062,41.0,87,0,2.64,IR,1615944493
267,aberdeen,57.1437,-2.0981,39.2,81,97,2.3,GB,1615944309
268,jiuquan,39.7432,98.5174,36.21,17,100,4.12,CN,1615944536
269,tomatlan,19.9333,-105.25,72.14,53,0,4.09,MX,1615944537
270,lindlar,51.0196,7.3776,39.99,93,75,3.44,DE,1615944537
271,alugan,12.2188,125.4808,83.79,74,0,6.8,PH,1615944538
272,urcos,-13.6861,-71.6228,57.2,58,75,11.5,PE,1615944538
273,muros,42.7762,-9.0603,54.0,66,0,5.01,ES,1615944538
274,saint george,37.1041,-113.5841,48.0,66,90,8.05,US,1615944539
275,ojinaga,29.5667,-104.4167,82.4,4,90,16.11,MX,1615944539
276,biga,40.2281,27.2422,41.0,93,75,4.61,TR,1615944540
277,nuuk,64.1835,-51.7216,17.6,73,90,12.66,GL,1615944540
278,arica,-18.475,-70.3042,69.8,78,0,1.68,CL,1615944540
279,osa,57.2829,55.4567,20.08,85,100,12.46,RU,1615944541
280,henties bay,-22.116,14.2845,61.0,89,12,1.01,NA,1615944541
281,san cristobal,7.7669,-72.225,73.4,100,75,2.3,VE,1615944542
282,nyurba,63.2842,118.3319,13.91,92,100,9.62,RU,1615944542
283,kavieng,-2.5744,150.7967,84.24,69,85,5.7,PG,1615944542
284,hohhot,40.8106,111.6522,42.8,22,79,6.71,CN,1615944543
285,chokurdakh,70.6333,147.9167,-15.92,85,7,7.61,RU,1615944543
286,wilson,36.1501,-86.2833,68.0,77,20,4.61,US,1615944544
287,keuruu,62.2667,24.7,30.2,86,90,6.91,FI,1615944544
288,hamza,40.4264,71.4956,37.4,75,75,4.61,UZ,1615944544
289,batagay-alyta,67.8006,130.4114,-10.3,83,0,2.13,RU,1615944545
290,port alberni,49.2413,-124.8028,50.0,59,51,1.36,CA,1615944545
291,egvekinot,66.3167,-179.1667,-4.92,85,41,5.82,RU,1615944545
292,batemans bay,-35.7167,150.1833,68.0,70,93,1.99,AU,1615944546
293,tocopilla,-22.092,-70.1979,67.8,81,18,5.55,CL,1615944546
294,concarneau,47.875,-3.9225,50.0,87,90,4.61,FR,1615944547
295,severnyy,50.677,36.5532,33.8,75,75,11.18,RU,1615944547
296,hare bay,48.8499,-54.0148,19.4,86,100,9.22,CA,1615944548
297,luorong,24.4058,109.6086,72.95,77,97,4.63,CN,1615944384
298,baruun-urt,46.6806,113.2792,23.45,52,100,6.2,MN,1615944548
299,palestina,31.9216,35.2033,55.4,82,40,3.44,PS,1615944549
300,longyearbyen,78.2186,15.6401,-7.6,59,20,18.41,SJ,1615944549
301,chapais,49.7834,-74.8492,30.2,34,1,6.91,CA,1615944549
302,vizinga,61.0749,50.1031,29.75,93,98,7.4,RU,1615944550
303,uyuni,-20.4597,-66.825,54.59,33,31,11.27,BO,1615944550
304,manzanillo,20.3433,-77.1167,74.35,69,0,7.05,CU,1615944551
305,tadine,-21.55,167.8833,80.94,71,63,0.89,NC,1615944551
306,ojhar,20.1,73.9333,70.09,30,0,3.18,IN,1615944552
307,durban,-29.8579,31.0292,71.6,83,40,1.14,ZA,1615944552
308,vuktyl,63.8567,57.3094,29.66,97,100,8.28,RU,1615944552
309,ziro,27.6333,93.8333,49.3,82,0,1.61,IN,1615944553
310,chipiona,36.7366,-6.437,55.4,71,0,9.22,ES,1615944553
311,cap malheureux,-19.9842,57.6142,75.99,85,7,1.01,MU,1615944554
312,zhenlai,45.8495,123.2973,31.89,39,0,6.93,CN,1615944554
313,killybegs,54.6333,-8.45,43.07,81,88,2.33,IE,1615944554
314,chicama,-7.8447,-79.1469,71.6,88,40,11.5,PE,1615944555
315,kajaani,64.2273,27.7285,24.8,93,40,5.75,FI,1615944555
316,beloha,-25.1667,45.05,73.74,77,0,10.2,MG,1615944556
317,morgantown,39.6295,-79.9559,60.8,51,1,2.01,US,1615944351
318,meadow lake,34.8014,-106.5436,33.8,86,90,12.66,US,1615944556
319,kosh-agach,50.0,88.6667,-5.48,90,70,1.88,RU,1615944557
320,itacurubi del rosario,-24.5,-56.6833,81.84,66,9,8.16,PY,1615944557
321,sirari,-1.2333,34.4333,62.8,79,100,7.34,TZ,1615944557
322,estevan,49.1334,-102.9842,32.0,93,90,9.22,CA,1615944558
323,ternate,0.8,127.4,83.35,73,68,6.55,ID,1615944514
324,pangkalanbuun,-2.6833,111.6167,85.33,67,98,1.77,ID,1615944558
325,udachnyy,66.4167,112.4,-25.55,88,0,7.07,RU,1615944559
326,wichita falls,33.9137,-98.4934,73.4,60,1,16.11,US,1615944546
327,puerto madryn,-42.7692,-65.0385,54.72,64,28,20.83,AR,1615944559
328,cayenne,4.9333,-52.3333,80.01,88,20,10.92,GF,1615944352
329,mayor pablo lagerenza,-19.9309,-60.7718,82.31,56,39,7.94,PY,1615944560
330,fort nelson,58.8053,-122.7002,44.6,31,75,5.75,CA,1615944561
331,hirtshals,57.5881,9.9592,32.0,93,75,4.79,DK,1615944561
332,bullhead city,35.1478,-114.5683,64.4,25,20,5.75,US,1615944299
333,inta,66.0317,60.1659,19.65,97,100,1.81,RU,1615944562
334,cassilandia,-19.1133,-51.7342,72.41,88,100,1.43,BR,1615944562
335,payakumbuh,-0.2202,100.6308,70.34,92,100,1.95,ID,1615944562
336,north platte,41.1239,-100.7654,37.4,70,75,11.5,US,1615944563
337,manta,-0.95,-80.7333,80.6,78,40,4.61,EC,1615944563
338,aksarka,66.5606,67.7975,-1.23,96,100,9.57,RU,1615944564
339,mount pleasant,32.7941,-79.8626,57.2,94,40,2.51,US,1615944564
340,ulladulla,-35.35,150.4667,68.0,77,75,10.36,AU,1615944565
341,puerto rico,-26.796,-55.024,75.52,74,0,2.57,AR,1615944565
342,panama city,8.9936,-79.5197,80.6,74,90,9.22,PA,1615944288
343,touros,-5.1989,-35.4608,80.6,74,75,8.05,BR,1615944530
344,broken hill,-31.95,141.4333,71.6,46,40,5.75,AU,1615944566
345,zafra,38.4167,-6.4167,52.0,60,0,3.0,ES,1615944566
346,vostok,46.4856,135.8833,21.63,91,100,7.23,RU,1615944567
347,valencia,39.3333,-0.8333,50.0,67,0,1.99,ES,1615944567
348,charters towers,-20.1,146.2667,81.01,63,96,8.19,AU,1615944567
349,atherton,53.5237,-2.4935,43.0,75,0,4.0,GB,1615944568
350,nishihara,26.1842,127.7558,77.0,73,40,4.61,JP,1615944568
351,rumford,44.5537,-70.5509,26.01,66,100,1.01,US,1615944294
352,ancud,-41.8697,-73.8203,50.0,76,0,10.36,CL,1615944569
353,vanavara,60.34,102.2797,9.59,93,100,9.06,RU,1615944569
354,arawa,-6.2132,155.5367,88.57,55,11,4.12,PG,1615944570
355,huancavelica,-12.7667,-74.9833,38.89,94,100,0.96,PE,1615944570
356,aksu,41.1231,80.2644,47.32,39,100,7.34,CN,1615944571
357,baracoa,20.3467,-74.4958,74.21,81,42,11.25,CU,1615944571
358,gat,31.61,34.7642,55.0,100,2,1.99,IL,1615944364
359,newport,51.5877,-2.9984,45.0,72,25,3.53,GB,1615944572
360,mizan teferi,6.9833,35.5833,62.55,89,55,3.06,ET,1615944572
361,tiznit,29.5833,-9.5,62.87,51,0,1.39,MA,1615944572
362,van buren,35.4368,-94.3483,66.99,55,1,5.75,US,1615944390
363,lalibela,12.0333,39.0333,59.41,32,100,5.48,ET,1615944573
364,laguna,38.421,-121.4238,59.0,38,1,3.44,US,1615944573
365,passos,-20.7189,-46.6097,67.6,87,0,2.62,BR,1615944574
366,ishigaki,24.3448,124.1572,75.2,88,75,10.36,JP,1615944574
367,jinchang,38.4953,102.1739,37.31,24,100,5.53,CN,1615944535
368,thinadhoo,0.5333,72.9333,82.18,72,81,7.0,MV,1615944575
369,dunbar,38.3606,-81.7374,64.4,52,90,2.24,US,1615944575
370,arlit,18.7369,7.3853,79.21,15,0,11.12,NE,1615944575
371,buraydah,26.326,43.975,73.4,64,40,2.3,SA,1615944576
372,tual,-5.6667,132.75,83.12,69,39,3.15,ID,1615944576
373,ulety,51.3572,112.4849,14.7,79,39,7.61,RU,1615944577
374,boulder city,35.9786,-114.8325,57.99,30,1,11.5,US,1615944577
375,diffa,13.3154,12.6113,80.08,14,57,9.31,NE,1615944577
376,benguela,-12.5763,13.4055,78.6,81,97,1.21,AO,1615944578
377,tagusao,9.1924,117.8141,82.63,74,0,2.75,PH,1615944578
378,macomer,40.262,8.7699,39.2,93,0,2.3,IT,1615944579
379,dzhebariki-khaya,62.2167,135.8,4.15,82,78,3.29,RU,1615944579
380,aasiaat,68.7098,-52.8699,1.26,92,100,4.18,GL,1615944580
381,yagodnoye,62.55,149.6667,-6.77,65,0,3.51,RU,1615944580
382,comodoro rivadavia,-45.8667,-67.5,48.2,76,0,6.29,AR,1615944581
383,svarstad,59.399,9.9698,33.01,1,66,4.54,NO,1615944581
384,portmore,17.9702,-76.8672,80.6,65,20,21.85,JM,1615944582
385,marzuq,14.4,46.4667,56.77,32,0,3.38,YE,1615944582
386,bogoslovka,53.2084,44.8013,17.94,91,100,9.69,RU,1615944582
387,novyy urgal,51.0736,132.5642,25.5,82,100,0.09,RU,1615944583
388,karratha,-20.7377,116.8463,88.72,45,100,8.75,AU,1615944583
389,bilma,18.6853,12.9164,72.54,24,0,13.44,NE,1615944584
390,nautla,20.2167,-96.7833,77.13,84,0,15.01,MX,1615944584
391,portland,45.5234,-122.6762,54.0,40,20,6.91,US,1615943819
392,stabat,3.761,98.4513,77.0,94,75,9.22,ID,1615944585
393,san pedro,14.35,121.0167,87.01,70,20,6.91,PH,1615944585
394,rawson,-43.3002,-65.1023,53.62,63,35,19.55,AR,1615944585
395,kamaishi,39.2667,141.8833,42.8,56,75,12.66,JP,1615944586
396,salinopolis,-0.6136,-47.3561,78.35,86,100,9.26,BR,1615944586
397,matagami,49.7502,-77.6328,33.8,40,1,4.61,CA,1615944587
398,martapura,-3.4167,114.85,85.53,68,37,0.96,ID,1615944587
399,tuatapere,-46.1333,167.6833,57.99,57,49,15.01,NZ,1615944327
400,alice town,25.7167,-79.3,75.33,72,41,9.19,BS,1615944588
401,umred,20.85,79.3333,75.2,50,75,2.3,IN,1615944588
402,znamenskoye,57.1281,73.8282,8.92,95,100,7.31,RU,1615944589
403,dudinka,69.4058,86.1778,-26.48,89,100,3.69,RU,1615944589
404,tsumeb,-19.2333,17.7167,62.6,94,99,2.3,NA,1615944589
405,vartop,44.2,23.35,42.01,81,90,5.75,RO,1615944590
406,gizo,-8.103,156.8419,84.25,65,6,4.43,SB,1615944590
407,jacareacanga,-6.2222,-57.7528,76.66,84,34,1.52,BR,1615944591
408,mlalo,-4.9333,38.9333,76.42,82,100,0.6,TZ,1615944591
409,walvis bay,-22.9575,14.5053,61.0,88,0,3.44,NA,1615944591
410,khabary,53.6259,79.5345,3.04,94,27,8.14,RU,1615944592
411,kununurra,-15.7667,128.7333,84.2,70,47,3.44,AU,1615944592
412,yacuiba,-22.038,-63.6797,74.34,89,100,2.35,BO,1615944593
413,shingu,33.7333,135.9833,66.2,42,0,16.11,JP,1615944593
414,price,39.5994,-110.8107,41.0,75,20,8.05,US,1615944593
415,manavalakurichi,8.1333,77.3,80.6,83,20,4.61,IN,1615944594
416,malakal,9.5334,31.6605,81.79,38,35,3.6,SS,1615944594
417,mandalgarh,25.2,75.1,72.03,23,62,3.13,IN,1615944595
418,sambava,-14.2667,50.1667,75.65,89,100,5.77,MG,1615944595
419,bridlington,54.0831,-0.1919,41.0,84,100,1.99,GB,1615944595
420,carutapera,-1.195,-46.02,76.32,91,100,5.57,BR,1615944596
421,plettenberg bay,-34.0527,23.3716,62.11,87,8,2.06,ZA,1615944596
422,lata,40.1629,-8.3327,53.01,67,0,8.99,PT,1615944597
423,bang saphan,11.2126,99.5117,81.0,100,20,1.14,TH,1615944597
424,kondinskoye,59.6481,67.41,15.91,94,84,10.09,RU,1615944597
425,aklavik,68.2191,-135.0107,-0.4,60,59,3.44,CA,1615944598
426,ulaangom,49.9811,92.0667,6.22,93,100,2.15,MN,1615944598
427,yilan,24.757,121.753,77.0,73,20,5.75,TW,1615944599
428,bereda,43.2686,-7.5406,45.0,97,18,7.0,ES,1615944599
429,esperance,-33.8667,121.9,77.0,36,95,14.97,AU,1615944322
430,goya,-29.14,-59.2626,71.33,96,100,1.14,AR,1615944600
431,esso,55.9333,158.7,36.9,96,87,5.73,RU,1615944600
432,mitsamiouli,-11.3847,43.2844,81.77,71,1,3.69,KM,1615944601
433,nizwa,22.9333,57.5333,64.08,34,82,1.34,OM,1615944601
434,berbera,10.4396,45.0143,76.89,84,99,5.88,SO,1615944602
435,visby,57.6409,18.296,30.2,100,90,3.44,SE,1615944604
436,beruwala,6.4788,79.9828,75.9,88,0,4.99,LK,1615944516
437,aitape,-3.1374,142.3475,86.32,62,100,2.71,PG,1615944605
438,saldanha,-33.0117,17.9442,60.8,77,0,5.75,ZA,1615944605
439,berlevag,70.8578,29.0864,18.95,81,100,24.45,NO,1615944606
440,papara,-3.9839,-38.7273,82.0,83,40,4.61,BR,1615944606
441,iglesias,39.3114,8.535,42.8,87,0,6.91,IT,1615944606
442,leh,34.1667,77.5833,20.66,72,78,4.23,IN,1615944607
443,salekhard,66.53,66.6019,-0.62,93,94,7.38,RU,1615944608
444,brigantine,39.4101,-74.3646,39.99,87,90,3.44,US,1615944608
445,barreirinhas,-2.7469,-42.8264,76.48,91,100,5.75,BR,1615944609
446,aksha,50.2814,113.2867,22.5,59,0,12.37,RU,1615944609
447,cabo san lucas,22.8909,-109.9124,73.99,49,1,8.05,MX,1615944347
448,cardoso,-20.0819,-49.9142,73.49,83,100,3.0,BR,1615944610
449,el alto,-4.2714,-81.2147,77.13,71,96,12.8,PE,1615944610
450,ust-nera,64.5667,143.2,-8.43,87,27,6.06,RU,1615944507
451,norden,53.6,7.2,39.0,83,90,8.99,DE,1615944611
452,asau,46.4333,26.4,37.0,67,100,9.44,RO,1615944611
453,burnie,-41.0667,145.9167,61.18,70,75,13.18,AU,1615944612
454,gorontalo,0.5412,123.0595,90.27,59,1,1.41,ID,1615944612
455,kanigoro,-8.13,112.219,83.88,70,44,2.64,ID,1615944612
456,norman wells,65.282,-126.8329,-2.2,71,75,3.44,CA,1615944515
457,husavik,66.0449,-17.3389,41.0,75,20,11.5,IS,1615944613
458,chumikan,54.7183,135.315,18.79,61,100,0.87,RU,1615944613
459,west wendover,40.7391,-114.0733,53.6,35,75,10.36,US,1615944614
460,augusto correa,-1.0217,-46.635,74.46,96,100,2.89,BR,1615944614
461,santa maria,-29.6842,-53.8069,73.4,100,75,13.8,BR,1615944615
462,yuzhno-sukhokumsk,44.6581,45.6436,41.32,84,100,11.14,RU,1615944615
463,kibondo,-3.5864,30.7203,59.4,96,100,2.26,TZ,1615944616
464,irbeyskoye,55.6428,95.4522,11.93,86,61,3.96,RU,1615944616
465,sikasso,10.9167,-7.0,78.44,24,10,4.0,ML,1615944616
466,tlacotepec,20.0667,-97.8667,67.32,72,0,4.32,MX,1615944617
467,vestmannaeyjar,63.4427,-20.2734,45.7,96,100,19.73,IS,1615944617
468,maniitsoq,65.4167,-52.9,8.26,89,100,8.16,GL,1615944618
469,alpena,45.0617,-83.4327,33.8,69,90,2.06,US,1615944618
470,kotido,2.9806,34.1331,70.36,53,100,13.87,UG,1615944618
471,kahului,20.8947,-156.47,77.0,78,40,17.27,US,1615944619
472,bubaque,11.2833,-15.8333,77.72,63,0,15.88,GW,1615944619
473,klyuchi,52.2667,79.1667,5.34,89,27,7.83,RU,1615944620
474,adeje,28.1227,-16.726,63.0,67,20,11.5,ES,1615944620
475,tiksi,71.6872,128.8694,-12.33,97,100,3.74,RU,1615944620
476,meulaboh,4.1363,96.1285,77.04,89,100,2.95,ID,1615944621
477,fukue,32.6881,128.8419,60.8,72,20,10.36,JP,1615944621
478,marsassoum,12.8275,-15.9806,69.8,88,0,2.3,SN,1615944622
479,tifton,31.4505,-83.5085,73.99,68,90,5.75,US,1615944622
480,bull savanna,17.8868,-77.5902,73.18,82,16,8.03,JM,1615944623
481,cukai,4.25,103.4167,77.0,88,20,3.44,MY,1615944623
482,sao joao da barra,-21.6403,-41.0511,77.2,85,7,15.66,BR,1615944624
483,medvedevo,56.6339,47.804,23.0,58,0,13.42,RU,1615944624
484,tessalit,20.1986,1.0114,69.04,18,0,4.99,ML,1615944624
485,port hardy,50.6996,-127.4199,44.6,65,90,6.91,CA,1615944604
486,mana,5.6592,-53.7767,76.32,81,37,10.65,GF,1615944625
487,kedainiai,55.2883,23.9747,33.8,86,90,8.05,LT,1615944625
488,kribi,2.95,9.9167,77.76,85,100,8.19,CM,1615944626
489,agadez,19.75,10.25,67.75,25,0,11.32,NE,1615944626
490,rosetta,31.4044,30.4164,51.8,76,0,4.61,EG,1615944627
491,kamennomostskiy,44.2983,40.1856,38.64,83,0,5.14,RU,1615944627
492,petropavlovsk-kamchatskiy,53.0452,158.6483,37.4,93,75,11.18,RU,1615944609
493,tiarei,-17.5333,-149.3333,86.0,62,75,8.05,PF,1615944628
494,togur,58.3631,82.8265,12.92,94,91,8.61,RU,1615944628
495,susurluk,39.9136,28.1578,42.8,93,75,4.61,TR,1615944629
496,dolores,-36.3132,-57.6792,66.33,98,100,3.78,AR,1615944629
497,vallenar,-28.5708,-70.7581,59.9,69,0,2.64,CL,1615944629
498,ajdabiya,30.7554,20.2263,57.92,69,0,14.56,LY,1615944630
499,caravelas,-17.7125,-39.2481,77.29,83,22,7.9,BR,1615944630
500,valera,9.3178,-70.6036,71.1,92,73,3.27,VE,1615944630
501,mbeya,-8.9,33.45,57.4,93,82,3.09,TZ,1615944631
502,bria,6.5423,21.9863,69.01,93,100,4.63,CF,1615944631
503,mangan,27.5167,88.5333,69.1,35,0,1.34,IN,1615944632
504,sao mateus,-18.7161,-39.8589,74.12,92,0,4.61,BR,1615944632
505,puerto baquerizo moreno,-0.9,-89.6,77.0,94,75,3.44,EC,1615944633
506,sao francisco do sul,-26.2433,-48.6381,75.2,94,20,2.3,BR,1615944633
507,kreuzau,50.75,6.4833,39.99,93,75,4.61,DE,1615944633
508,luderitz,-26.6481,15.1594,61.05,87,0,8.86,NA,1615944634
509,terney,45.0503,136.6092,35.33,63,84,8.88,RU,1615944634
510,bulgan,48.8125,103.5347,19.47,67,39,3.2,MN,1615944339
511,la sarre,48.8002,-79.1996,25.5,95,90,5.77,CA,1615944607
512,seondha,26.1578,78.7797,75.74,23,83,0.34,IN,1615944635
513,sola,-13.8833,167.55,86.0,79,75,8.23,VU,1615944529
514,hobyo,5.3505,48.5268,80.11,80,14,15.84,SO,1615944636
515,katsuura,35.1333,140.3,62.01,36,20,10.36,JP,1615944538
516,diamantino,-14.4086,-56.4461,75.2,90,61,3.89,BR,1615944636
517,okha,53.5739,142.9478,19.67,76,100,17.63,RU,1615944636
518,korla,41.7597,86.1469,43.5,41,34,16.53,CN,1615944637
519,maldonado,-34.6667,-54.9167,73.4,88,90,10.36,UY,1615944637
520,lithgow,-33.4833,150.15,54.0,43,99,5.01,AU,1615944638
521,sokur,55.2093,83.319,6.8,72,0,6.71,RU,1615944638
522,saint-joseph,-21.3667,55.6167,75.2,64,0,4.61,RE,1615944639
523,cootamundra,-34.65,148.0333,64.99,64,100,7.0,AU,1615944639
524,glenwood springs,39.5505,-107.3248,39.99,93,90,5.75,US,1615944639
525,santa rosa,14.3122,121.1114,86.0,70,20,6.91,PH,1615944640
526,shuyskoye,59.3736,41.0305,29.16,94,100,2.93,RU,1615944640
527,santa ines,-3.6667,-45.38,74.19,96,100,3.87,BR,1615944496
528,oranjemund,-28.55,16.4333,62.19,92,44,4.68,NA,1615944641
529,hofn,64.2539,-15.2082,42.57,86,100,7.76,IS,1615944641
530,boffa,10.1667,-14.0333,71.02,86,0,2.66,GN,1615944642
531,tacoaleche,22.8167,-102.4167,73.4,4,20,23.02,MX,1615944642
532,temiscaming,46.7212,-79.0971,30.2,69,6,3.44,CA,1615944609
533,camacha,33.0833,-16.3333,59.0,88,40,10.36,PT,1615944643
534,lavrentiya,65.5833,-171.0,6.55,92,100,4.09,RU,1615944643
535,urengoy,65.9667,78.3667,14.92,94,100,13.47,RU,1615944643
536,benavente,42.0025,-5.6783,46.0,93,0,4.61,ES,1615944446
537,bossier city,32.516,-93.7321,79.0,65,40,4.61,US,1615944644
538,coahuayana,18.7333,-103.6833,71.6,73,1,1.19,MX,1615944644
539,socorro,31.6546,-106.3033,55.4,24,1,16.11,US,1615944645
540,tianpeng,30.9866,103.9393,64.99,1,88,7.27,CN,1615944645
541,moose factory,51.2585,-80.6094,35.6,60,90,5.75,CA,1615944646
542,hatillo,18.4863,-66.8254,75.99,69,75,16.11,PR,1615944646
543,stokmarknes,68.5646,14.9108,34.0,93,100,4.0,NO,1615944646
544,beinamar,8.6698,15.3813,77.43,39,98,4.32,TD,1615944368
545,yumen,40.2833,97.2,33.46,19,0,6.8,CN,1615944533
546,ottawa,45.4112,-75.6981,30.99,59,75,2.3,CA,1615944647
547,najran,17.4924,44.1277,62.6,22,0,6.91,SA,1615944648
548,nelson bay,-32.7167,152.15,69.8,78,90,13.8,AU,1615944648
549,barcelos,41.5388,-8.6151,60.8,44,0,12.66,PT,1615944648
550,honiara,-9.4333,159.95,86.34,65,11,6.29,SB,1615944649
551,basco,20.4487,121.9702,78.85,86,14,19.33,PH,1615944650
552,kamina,-8.7386,24.9906,62.22,97,100,3.56,CD,1615944650
553,kalya,12.9793,77.1806,66.2,88,10,4.41,IN,1615944651
554,medea,36.2642,2.7539,44.6,87,20,2.3,DZ,1615944651
555,namibe,-15.1961,12.1522,75.9,81,100,4.09,AO,1615944534
556,alekseyevsk,57.8406,108.3492,14.61,90,90,8.55,RU,1615944652
557,teya,60.3778,92.6267,13.93,92,99,6.98,RU,1615944652
558,yulara,-25.2406,130.9889,78.8,15,0,12.66,AU,1615944652
559,salinas,36.6777,-121.6555,53.6,54,1,11.5,US,1615944582
560,chunhuhub,19.55,-88.6833,75.04,75,0,4.12,MX,1615944653
561,lazaro cardenas,17.9583,-102.2,73.08,75,0,3.74,MX,1615944606
562,flagstaff,35.1981,-111.6513,34.0,74,75,9.22,US,1615944653
563,kozluk,38.1938,41.4885,48.2,81,75,5.75,TR,1615944654
564,pingshan,22.9938,114.7131,75.0,76,0,4.45,CN,1615944654
565,campina verde,-19.5356,-49.4864,70.95,89,100,4.05,BR,1615944655
566,yarada,17.65,83.2667,79.12,72,0,4.59,IN,1615944655
567,ostrovnoy,68.0531,39.5131,7.93,95,90,12.01,RU,1615944655
568,pak phanang,8.3511,100.202,78.8,89,20,4.72,TH,1615944656
569,severodvinsk,64.5635,39.8302,28.4,93,90,2.24,RU,1615944656
570,isangel,-19.55,169.2667,87.8,66,20,11.5,VU,1615944657
